[
    {
        "stopPointRef": "de:14612:1",
        "stopPointName": "Bahnhof Mitte",
        "locationName": "Dresden",
        "longitude": "13.72339",
        "latitude": "51.05564"
    },
    {
        "stopPointRef": "de:14612:10",
        "stopPointName": "Sachsenallee",
        "locationName": "Dresden",
        "longitude": "13.75738",
        "latitude": "51.05460"
    },
    {
        "stopPointRef": "de:14612:100",
        "stopPointName": "Meu\u00dflitzer Stra\u00dfe",
        "locationName": "Dresden",
        "longitude": "13.84893",
        "latitude": "51.00803"
    },
    {
        "stopPointRef": "de:14612:101",
        "stopPointName": "Freystra\u00dfe",
        "locationName": "Dresden",
        "longitude": "13.85491",
        "latitude": "51.00833"
    },
    {
        "stopPointRef": "de:14612:1025",
        "stopPointName": "Kauscha",
        "locationName": "Dresden",
        "longitude": "13.77819",
        "latitude": "50.99357"
    },
    {
        "stopPointRef": "de:14612:1027",
        "stopPointName": "Dresden Am Kirschfeld",
        "locationName": "Dresden",
        "longitude": "13.78286",
        "latitude": "50.99455"
    },
    {
        "stopPointRef": "de:14612:103",
        "stopPointName": "F\u00f6rsterlingstra\u00dfe",
        "locationName": "Dresden",
        "longitude": "13.82975",
        "latitude": "51.00062"
    },
    {
        "stopPointRef": "de:14612:11",
        "stopPointName": "Rosa-Luxemburg-Platz",
        "locationName": "Dresden",
        "longitude": "13.75292",
        "latitude": "51.05932"
    },
    {
        "stopPointRef": "de:14612:111",
        "stopPointName": "Lenn\u00e9platz",
        "locationName": "Dresden",
        "longitude": "13.74660",
        "latitude": "51.03838"
    },
    {
        "stopPointRef": "de:14612:112",
        "stopPointName": "Zoo",
        "locationName": "Dresden",
        "longitude": "13.75287",
        "latitude": "51.03667"
    },
    {
        "stopPointRef": "de:14612:113",
        "stopPointName": "Querallee",
        "locationName": "Dresden",
        "longitude": "13.75810",
        "latitude": "51.03458"
    },
    {
        "stopPointRef": "de:14612:114",
        "stopPointName": "Julius-Otto-Stra\u00dfe",
        "locationName": "Dresden",
        "longitude": "13.75765",
        "latitude": "51.03255"
    },
    {
        "stopPointRef": "de:14612:115",
        "stopPointName": "Wasaplatz",
        "locationName": "Dresden",
        "longitude": "13.75918",
        "latitude": "51.02812"
    },
    {
        "stopPointRef": "de:14612:116",
        "stopPointName": "Mockritzer Stra\u00dfe",
        "locationName": "Dresden",
        "longitude": "13.76228",
        "latitude": "51.02453"
    },
    {
        "stopPointRef": "de:14612:117",
        "stopPointName": "Hugo-B\u00fcrkner-Stra\u00dfe",
        "locationName": "Dresden",
        "longitude": "13.76543",
        "latitude": "51.02243"
    },
    {
        "stopPointRef": "de:14612:118",
        "stopPointName": "C\u00e4cilienstra\u00dfe",
        "locationName": "Dresden",
        "longitude": "13.76993",
        "latitude": "51.02497"
    },
    {
        "stopPointRef": "de:14612:119",
        "stopPointName": "Eugen-Bracht-Stra\u00dfe",
        "locationName": "Dresden",
        "longitude": "13.77432",
        "latitude": "51.02271"
    },
    {
        "stopPointRef": "de:14612:12",
        "stopPointName": "Bautzner Stra\u00dfe \/ Rothenburger Stra\u00dfe",
        "locationName": "Dresden",
        "longitude": "13.75190",
        "latitude": "51.06299"
    },
    {
        "stopPointRef": "de:14612:120",
        "stopPointName": "Otto-Dix-Ring",
        "locationName": "Dresden",
        "longitude": "13.78054",
        "latitude": "51.01946"
    },
    {
        "stopPointRef": "de:14612:121",
        "stopPointName": "Wieckestra\u00dfe",
        "locationName": "Dresden",
        "longitude": "13.78382",
        "latitude": "51.01763"
    },
    {
        "stopPointRef": "de:14612:122",
        "stopPointName": "Lohrmannstra\u00dfe",
        "locationName": "Dresden",
        "longitude": "13.78698",
        "latitude": "51.01577"
    },
    {
        "stopPointRef": "de:14612:123",
        "stopPointName": "H\u00fcl\u00dfestra\u00dfe",
        "locationName": "Dresden",
        "longitude": "13.79081",
        "latitude": "51.01353"
    },
    {
        "stopPointRef": "de:14612:124",
        "stopPointName": "Altreick",
        "locationName": "Dresden",
        "longitude": "13.79512",
        "latitude": "51.01304"
    },
    {
        "stopPointRef": "de:14612:125",
        "stopPointName": "Dresden M\u00fcgelner Stra\u00dfe",
        "locationName": "Dresden",
        "longitude": "13.80597",
        "latitude": "51.01085"
    },
    {
        "stopPointRef": "de:14612:126",
        "stopPointName": "Breitscheidstra\u00dfe",
        "locationName": "Dresden",
        "longitude": "13.81150",
        "latitude": "51.01375"
    },
    {
        "stopPointRef": "de:14612:127",
        "stopPointName": "Trattendorfer Stra\u00dfe",
        "locationName": "Dresden",
        "longitude": "13.80079",
        "latitude": "51.01012"
    },
    {
        "stopPointRef": "de:14612:128",
        "stopPointName": "Dresden Betriebshof Reick",
        "locationName": "Dresden",
        "longitude": "13.80466",
        "latitude": "51.01069"
    },
    {
        "stopPointRef": "de:14612:13",
        "stopPointName": "Albertplatz",
        "locationName": "Dresden",
        "longitude": "13.74673",
        "latitude": "51.06331"
    },
    {
        "stopPointRef": "de:14612:130",
        "stopPointName": "Dresden Abstellanlage DBOstbau",
        "locationName": "Dresden",
        "longitude": "13.73544",
        "latitude": "51.03905"
    },
    {
        "stopPointRef": "de:14612:131",
        "stopPointName": "Reichenbachstra\u00dfe",
        "locationName": "Dresden",
        "longitude": "13.73139",
        "latitude": "51.03512"
    },
    {
        "stopPointRef": "de:14612:132",
        "stopPointName": "N\u00fcrnberger Platz",
        "locationName": "Dresden",
        "longitude": "13.72694",
        "latitude": "51.03177"
    },
    {
        "stopPointRef": "de:14612:133",
        "stopPointName": "S\u00fcdvorstadt",
        "locationName": "Dresden",
        "longitude": "13.72228",
        "latitude": "51.03399"
    },
    {
        "stopPointRef": "de:14612:134",
        "stopPointName": "M\u00fcnchner Platz",
        "locationName": "Dresden",
        "longitude": "13.72157",
        "latitude": "51.02990"
    },
    {
        "stopPointRef": "de:14612:135",
        "stopPointName": "Plauen N\u00f6thnitzer Stra\u00dfe",
        "locationName": "Dresden",
        "longitude": "13.71577",
        "latitude": "51.02763"
    },
    {
        "stopPointRef": "de:14612:137",
        "stopPointName": "Dresden Jahnstra\u00dfe",
        "locationName": "Dresden",
        "longitude": "13.72397",
        "latitude": "51.05450"
    },
    {
        "stopPointRef": "de:14612:138",
        "stopPointName": "Dresden Wettiner Platz",
        "locationName": "Dresden",
        "longitude": "13.72349",
        "latitude": "51.05320"
    },
    {
        "stopPointRef": "de:14612:139",
        "stopPointName": "Dresden Fr\u00f6belstra\u00dfe",
        "locationName": "Dresden",
        "longitude": "13.70137",
        "latitude": "51.05012"
    },
    {
        "stopPointRef": "de:14612:14",
        "stopPointName": "Carolaplatz",
        "locationName": "Dresden",
        "longitude": "13.74596",
        "latitude": "51.05793"
    },
    {
        "stopPointRef": "de:14612:140",
        "stopPointName": "L\u00f6btau Gr\u00f6belstra\u00dfe",
        "locationName": "Dresden",
        "longitude": "13.70234",
        "latitude": "51.04332"
    },
    {
        "stopPointRef": "de:14612:141",
        "stopPointName": "Rosenstra\u00dfe",
        "locationName": "Dresden",
        "longitude": "13.71328",
        "latitude": "51.04666"
    },
    {
        "stopPointRef": "de:14612:142",
        "stopPointName": "Oederaner Stra\u00dfe",
        "locationName": "Dresden",
        "longitude": "13.70962",
        "latitude": "51.04488"
    },
    {
        "stopPointRef": "de:14612:144",
        "stopPointName": "Tharandter Stra\u00dfe",
        "locationName": "Dresden",
        "longitude": "13.70348",
        "latitude": "51.04374"
    },
    {
        "stopPointRef": "de:14612:145",
        "stopPointName": "B\u00fcnaustra\u00dfe",
        "locationName": "Dresden",
        "longitude": "13.69783",
        "latitude": "51.04348"
    },
    {
        "stopPointRef": "de:14612:146",
        "stopPointName": "Malterstra\u00dfe",
        "locationName": "Dresden",
        "longitude": "13.69128",
        "latitude": "51.04275"
    },
    {
        "stopPointRef": "de:14612:147",
        "stopPointName": "Koblenzer Stra\u00dfe",
        "locationName": "Dresden",
        "longitude": "13.68414",
        "latitude": "51.04245"
    },
    {
        "stopPointRef": "de:14612:148",
        "stopPointName": "W\u00f6lfnitz",
        "locationName": "Dresden",
        "longitude": "13.68178",
        "latitude": "51.04325"
    },
    {
        "stopPointRef": "de:14612:149",
        "stopPointName": "Wei\u00dferitzstra\u00dfe",
        "locationName": "Dresden",
        "longitude": "13.72327",
        "latitude": "51.05823"
    },
    {
        "stopPointRef": "de:14612:15",
        "stopPointName": "Synagoge",
        "locationName": "Dresden",
        "longitude": "13.74711",
        "latitude": "51.05247"
    },
    {
        "stopPointRef": "de:14612:150",
        "stopPointName": "Neuer Annenfriedhof",
        "locationName": "Dresden",
        "longitude": "13.69413",
        "latitude": "51.04335"
    },
    {
        "stopPointRef": "de:14612:153",
        "stopPointName": "Cottaer Stra\u00dfe",
        "locationName": "Dresden",
        "longitude": "13.71322",
        "latitude": "51.05045"
    },
    {
        "stopPointRef": "de:14612:154",
        "stopPointName": "Wernerstra\u00dfe",
        "locationName": "Dresden",
        "longitude": "13.70757",
        "latitude": "51.04632"
    },
    {
        "stopPointRef": "de:14612:155",
        "stopPointName": "Clara-Viebig-Stra\u00dfe",
        "locationName": "Dresden",
        "longitude": "13.70517",
        "latitude": "51.03810"
    },
    {
        "stopPointRef": "de:14612:156",
        "stopPointName": "W\u00fcrzburger Stra\u00dfe",
        "locationName": "Dresden",
        "longitude": "13.70359",
        "latitude": "51.03461"
    },
    {
        "stopPointRef": "de:14612:157",
        "stopPointName": "Altplauen",
        "locationName": "Dresden",
        "longitude": "13.70188",
        "latitude": "51.03190"
    },
    {
        "stopPointRef": "de:14612:159",
        "stopPointName": "Cosch\u00fctzer Stra\u00dfe",
        "locationName": "Dresden",
        "longitude": "13.70721",
        "latitude": "51.02825"
    },
    {
        "stopPointRef": "de:14612:16",
        "stopPointName": "Bahnhof Neustadt",
        "locationName": "Dresden",
        "longitude": "13.74088",
        "latitude": "51.06543"
    },
    {
        "stopPointRef": "de:14612:160",
        "stopPointName": "Westendstra\u00dfe",
        "locationName": "Dresden",
        "longitude": "13.71362",
        "latitude": "51.02460"
    },
    {
        "stopPointRef": "de:14612:161",
        "stopPointName": "C\u00e4mmerswalder Stra\u00dfe",
        "locationName": "Dresden",
        "longitude": "13.71741",
        "latitude": "51.02222"
    },
    {
        "stopPointRef": "de:14612:162",
        "stopPointName": "Kotteweg",
        "locationName": "Dresden",
        "longitude": "13.71035",
        "latitude": "51.02169"
    },
    {
        "stopPointRef": "de:14612:163",
        "stopPointName": "Saarstra\u00dfe",
        "locationName": "Dresden",
        "longitude": "13.70614",
        "latitude": "51.01911"
    },
    {
        "stopPointRef": "de:14612:164",
        "stopPointName": "Achtbeeteweg",
        "locationName": "Dresden",
        "longitude": "13.70094",
        "latitude": "51.01642"
    },
    {
        "stopPointRef": "de:14612:165",
        "stopPointName": "Cosch\u00fctz",
        "locationName": "Dresden",
        "longitude": "13.69909",
        "latitude": "51.01586"
    },
    {
        "stopPointRef": "de:14612:166",
        "stopPointName": "S-Bahnhof Plauen",
        "locationName": "Dresden",
        "longitude": "13.70315",
        "latitude": "51.02980"
    },
    {
        "stopPointRef": "de:14612:17",
        "stopPointName": "Anton-\/Leipziger Stra\u00dfe",
        "locationName": "Dresden",
        "longitude": "13.73699",
        "latitude": "51.06309"
    },
    {
        "stopPointRef": "de:14612:171",
        "stopPointName": "Semmelweisstra\u00dfe",
        "locationName": "Dresden",
        "longitude": "13.70537",
        "latitude": "51.05128"
    },
    {
        "stopPointRef": "de:14612:172",
        "stopPointName": "Burgkstra\u00dfe",
        "locationName": "Dresden",
        "longitude": "13.69571",
        "latitude": "51.04901"
    },
    {
        "stopPointRef": "de:14612:173",
        "stopPointName": "Pennricher Stra\u00dfe",
        "locationName": "Dresden",
        "longitude": "13.69209",
        "latitude": "51.04907"
    },
    {
        "stopPointRef": "de:14612:174",
        "stopPointName": "Conertplatz",
        "locationName": "Dresden",
        "longitude": "13.69316",
        "latitude": "51.04598"
    },
    {
        "stopPointRef": "de:14612:175",
        "stopPointName": "Birkenhainer Stra\u00dfe",
        "locationName": "Dresden",
        "longitude": "13.69094",
        "latitude": "51.05306"
    },
    {
        "stopPointRef": "de:14612:176",
        "stopPointName": "Altcotta",
        "locationName": "Dresden",
        "longitude": "13.68706",
        "latitude": "51.05695"
    },
    {
        "stopPointRef": "de:14612:177",
        "stopPointName": "Ockerwitzer Stra\u00dfe",
        "locationName": "Dresden",
        "longitude": "13.68430",
        "latitude": "51.05876"
    },
    {
        "stopPointRef": "de:14612:178",
        "stopPointName": "Chamissostra\u00dfe",
        "locationName": "Dresden",
        "longitude": "13.68787",
        "latitude": "51.04926"
    },
    {
        "stopPointRef": "de:14612:179",
        "stopPointName": "Hebbelplatz",
        "locationName": "Dresden",
        "longitude": "13.68274",
        "latitude": "51.05133"
    },
    {
        "stopPointRef": "de:14612:18",
        "stopPointName": "Palaisplatz",
        "locationName": "Dresden",
        "longitude": "13.73840",
        "latitude": "51.06020"
    },
    {
        "stopPointRef": "de:14612:181",
        "stopPointName": "Krankenhaus Friedrichstadt (Sportpark Ostra)",
        "locationName": "Dresden",
        "longitude": "13.71775",
        "latitude": "51.06003"
    },
    {
        "stopPointRef": "de:14612:182",
        "stopPointName": "Vorwerkstra\u00dfe",
        "locationName": "Dresden",
        "longitude": "13.71458",
        "latitude": "51.06101"
    },
    {
        "stopPointRef": "de:14612:183",
        "stopPointName": "Betriebshof Waltherstra\u00dfe",
        "locationName": "Dresden",
        "longitude": "13.71190",
        "latitude": "51.06034"
    },
    {
        "stopPointRef": "de:14612:184",
        "stopPointName": "Manitiusstra\u00dfe",
        "locationName": "Dresden",
        "longitude": "13.71477",
        "latitude": "51.05652"
    },
    {
        "stopPointRef": "de:14612:185",
        "stopPointName": "Waltherstra\u00dfe",
        "locationName": "Dresden",
        "longitude": "13.71006",
        "latitude": "51.05812"
    },
    {
        "stopPointRef": "de:14612:186",
        "stopPointName": "Hamburger Stra\u00dfe",
        "locationName": "Dresden",
        "longitude": "13.70317",
        "latitude": "51.05901"
    },
    {
        "stopPointRef": "de:14612:187",
        "stopPointName": "Bremer Stra\u00dfe",
        "locationName": "Dresden",
        "longitude": "13.69483",
        "latitude": "51.06066"
    },
    {
        "stopPointRef": "de:14612:188",
        "stopPointName": "Fl\u00fcgelweg",
        "locationName": "Dresden",
        "longitude": "13.69036",
        "latitude": "51.06155"
    },
    {
        "stopPointRef": "de:14612:189",
        "stopPointName": "Cossebauder Stra\u00dfe (Haltepunkt Cotta)",
        "locationName": "Dresden",
        "longitude": "13.68065",
        "latitude": "51.06166"
    },
    {
        "stopPointRef": "de:14612:19",
        "stopPointName": "Neust\u00e4dter Markt",
        "locationName": "Dresden",
        "longitude": "13.74123",
        "latitude": "51.05779"
    },
    {
        "stopPointRef": "de:14612:190",
        "stopPointName": "Gottfried-Keller-Stra\u00dfe",
        "locationName": "Dresden",
        "longitude": "13.67773",
        "latitude": "51.06100"
    },
    {
        "stopPointRef": "de:14612:191",
        "stopPointName": "Leutewitz",
        "locationName": "Dresden",
        "longitude": "13.67049",
        "latitude": "51.05926"
    },
    {
        "stopPointRef": "de:14612:192",
        "stopPointName": "Bahnhof Friedrichstadt",
        "locationName": "Dresden",
        "longitude": "13.70819",
        "latitude": "51.05603"
    },
    {
        "stopPointRef": "de:14612:193",
        "stopPointName": "Hp Cotta",
        "locationName": "Dresden",
        "longitude": "13.68339",
        "latitude": "51.06212"
    },
    {
        "stopPointRef": "de:14612:195",
        "stopPointName": "Dresden Hainstra\u00dfe",
        "locationName": "Dresden",
        "longitude": "13.73902",
        "latitude": "51.06130"
    },
    {
        "stopPointRef": "de:14612:197",
        "stopPointName": "Koreanischer Platz",
        "locationName": "Dresden",
        "longitude": "13.72014",
        "latitude": "51.05476"
    },
    {
        "stopPointRef": "de:14612:198",
        "stopPointName": "Bahnhof Neustadt (Hansastra\u00dfe)",
        "locationName": "Dresden",
        "longitude": "13.73911",
        "latitude": "51.06637"
    },
    {
        "stopPointRef": "de:14612:199",
        "stopPointName": "Eisenbahnstra\u00dfe",
        "locationName": "Dresden",
        "longitude": "13.73780",
        "latitude": "51.06487"
    },
    {
        "stopPointRef": "de:14612:20",
        "stopPointName": "Theaterplatz",
        "locationName": "Dresden",
        "longitude": "13.73658",
        "latitude": "51.05358"
    },
    {
        "stopPointRef": "de:14612:200",
        "stopPointName": "Altpieschen",
        "locationName": "Dresden",
        "longitude": "13.71712",
        "latitude": "51.07738"
    },
    {
        "stopPointRef": "de:14612:201",
        "stopPointName": "Alter Schlachthof",
        "locationName": "Dresden",
        "longitude": "13.73164",
        "latitude": "51.06792"
    },
    {
        "stopPointRef": "de:14612:202",
        "stopPointName": "Alexander-Puschkin-Platz",
        "locationName": "Dresden",
        "longitude": "13.72857",
        "latitude": "51.07087"
    },
    {
        "stopPointRef": "de:14612:203",
        "stopPointName": "Oschatzer Stra\u00dfe",
        "locationName": "Dresden",
        "longitude": "13.72307",
        "latitude": "51.07451"
    },
    {
        "stopPointRef": "de:14612:205",
        "stopPointName": "Mickten",
        "locationName": "Dresden",
        "longitude": "13.71386",
        "latitude": "51.08041"
    },
    {
        "stopPointRef": "de:14612:206",
        "stopPointName": "Trachauer Stra\u00dfe",
        "locationName": "Dresden",
        "longitude": "13.70795",
        "latitude": "51.07889"
    },
    {
        "stopPointRef": "de:14612:207",
        "stopPointName": "Rethelstra\u00dfe",
        "locationName": "Dresden",
        "longitude": "13.69866",
        "latitude": "51.07476"
    },
    {
        "stopPointRef": "de:14612:208",
        "stopPointName": "\u00dcbigau",
        "locationName": "Dresden",
        "longitude": "13.69074",
        "latitude": "51.07379"
    },
    {
        "stopPointRef": "de:14612:209",
        "stopPointName": "Alttrachau",
        "locationName": "Dresden",
        "longitude": "13.70900",
        "latitude": "51.08434"
    },
    {
        "stopPointRef": "de:14612:21",
        "stopPointName": "Kongresszentrum \/ Haus der Presse",
        "locationName": "Dresden",
        "longitude": "13.72778",
        "latitude": "51.05829"
    },
    {
        "stopPointRef": "de:14612:210",
        "stopPointName": "Rankestra\u00dfe",
        "locationName": "Dresden",
        "longitude": "13.70481",
        "latitude": "51.08586"
    },
    {
        "stopPointRef": "de:14612:211",
        "stopPointName": "Peschelstra\u00dfe",
        "locationName": "Dresden",
        "longitude": "13.70342",
        "latitude": "51.08858"
    },
    {
        "stopPointRef": "de:14612:212",
        "stopPointName": "S-Bahnhof Trachau West",
        "locationName": "Dresden",
        "longitude": "13.70257",
        "latitude": "51.09021"
    },
    {
        "stopPointRef": "de:14612:213",
        "stopPointName": "Kleestra\u00dfe",
        "locationName": "Dresden",
        "longitude": "13.69974",
        "latitude": "51.09235"
    },
    {
        "stopPointRef": "de:14612:214",
        "stopPointName": "Scharfenberger Stra\u00dfe",
        "locationName": "Dresden",
        "longitude": "13.69388",
        "latitude": "51.07403"
    },
    {
        "stopPointRef": "de:14612:216",
        "stopPointName": "Brockwitzer Stra\u00dfe",
        "locationName": "Dresden",
        "longitude": "13.70287",
        "latitude": "51.07800"
    },
    {
        "stopPointRef": "de:14612:217",
        "stopPointName": "An der Flutrinne",
        "locationName": "Dresden",
        "longitude": "13.69871",
        "latitude": "51.07726"
    },
    {
        "stopPointRef": "de:14612:218",
        "stopPointName": "S\u00f6rnewitzer Stra\u00dfe",
        "locationName": "Dresden",
        "longitude": "13.69713",
        "latitude": "51.07982"
    },
    {
        "stopPointRef": "de:14612:22",
        "stopPointName": "Maxstra\u00dfe (Bf Mitte)",
        "locationName": "Dresden",
        "longitude": "13.72663",
        "latitude": "51.05694"
    },
    {
        "stopPointRef": "de:14612:220",
        "stopPointName": "Washingtonstra\u00dfe",
        "locationName": "Dresden",
        "longitude": "13.69126",
        "latitude": "51.08228"
    },
    {
        "stopPointRef": "de:14612:23",
        "stopPointName": "Schweriner Stra\u00dfe",
        "locationName": "Dresden",
        "longitude": "13.72670",
        "latitude": "51.05276"
    },
    {
        "stopPointRef": "de:14612:237",
        "stopPointName": "Gro\u00dfenhainer Stra\u00dfe \/ Fritz-Reuter-Stra\u00dfe",
        "locationName": "Dresden",
        "longitude": "13.73471",
        "latitude": "51.07520"
    },
    {
        "stopPointRef": "de:14612:238",
        "stopPointName": "Dresden Moritzburger Platz",
        "locationName": "Dresden",
        "longitude": "13.72938",
        "latitude": "51.07634"
    },
    {
        "stopPointRef": "de:14612:240",
        "stopPointName": "Dresden Drey\u00dfigplatz",
        "locationName": "Dresden",
        "longitude": "13.71312",
        "latitude": "51.08077"
    },
    {
        "stopPointRef": "de:14612:241",
        "stopPointName": "L\u00f6\u00dfnitzstra\u00dfe",
        "locationName": "Dresden",
        "longitude": "13.73821",
        "latitude": "51.06942"
    },
    {
        "stopPointRef": "de:14612:242",
        "stopPointName": "Gro\u00dfenhainer Platz",
        "locationName": "Dresden",
        "longitude": "13.73576",
        "latitude": "51.07274"
    },
    {
        "stopPointRef": "de:14612:243",
        "stopPointName": "Liststra\u00dfe",
        "locationName": "Dresden",
        "longitude": "13.73300",
        "latitude": "51.07661"
    },
    {
        "stopPointRef": "de:14612:244",
        "stopPointName": "B\u00fcrgerstra\u00dfe",
        "locationName": "Dresden",
        "longitude": "13.72557",
        "latitude": "51.07690"
    },
    {
        "stopPointRef": "de:14612:245",
        "stopPointName": "Rathaus Pieschen",
        "locationName": "Dresden",
        "longitude": "13.72169",
        "latitude": "51.07740"
    },
    {
        "stopPointRef": "de:14612:246",
        "stopPointName": "Friedensstra\u00dfe",
        "locationName": "Dresden",
        "longitude": "13.74086",
        "latitude": "51.07348"
    },
    {
        "stopPointRef": "de:14612:247",
        "stopPointName": "S-Bahnhof Bischofsplatz",
        "locationName": "Dresden",
        "longitude": "13.74674",
        "latitude": "51.07205"
    },
    {
        "stopPointRef": "de:14612:248",
        "stopPointName": "Zeithainer Stra\u00dfe",
        "locationName": "Dresden",
        "longitude": "13.73015",
        "latitude": "51.08238"
    },
    {
        "stopPointRef": "de:14612:249",
        "stopPointName": "Trachenberger Platz",
        "locationName": "Dresden",
        "longitude": "13.72783",
        "latitude": "51.08464"
    },
    {
        "stopPointRef": "de:14612:25",
        "stopPointName": "S-Bf. Freiberger Stra\u00dfe",
        "locationName": "Dresden",
        "longitude": "13.72012",
        "latitude": "51.04862"
    },
    {
        "stopPointRef": "de:14612:250",
        "stopPointName": "Betriebshof Trachenberge",
        "locationName": "Dresden",
        "longitude": "13.72950",
        "latitude": "51.08738"
    },
    {
        "stopPointRef": "de:14612:251",
        "stopPointName": "Hubertusplatz",
        "locationName": "Dresden",
        "longitude": "13.72332",
        "latitude": "51.08963"
    },
    {
        "stopPointRef": "de:14612:252",
        "stopPointName": "Dorothea-Erxleben-Stra\u00dfe",
        "locationName": "Dresden",
        "longitude": "13.72063",
        "latitude": "51.09293"
    },
    {
        "stopPointRef": "de:14612:253",
        "stopPointName": "Wilder Mann",
        "locationName": "Dresden",
        "longitude": "13.71947",
        "latitude": "51.09590"
    },
    {
        "stopPointRef": "de:14612:254",
        "stopPointName": "R\u00fcckertstra\u00dfe",
        "locationName": "Dresden",
        "longitude": "13.72548",
        "latitude": "51.08836"
    },
    {
        "stopPointRef": "de:14612:259",
        "stopPointName": "Tannenstra\u00dfe",
        "locationName": "Dresden",
        "longitude": "13.75289",
        "latitude": "51.07382"
    },
    {
        "stopPointRef": "de:14612:26",
        "stopPointName": "Schwimmhalle Freiberger Platz",
        "locationName": "Dresden",
        "longitude": "13.72576",
        "latitude": "51.05039"
    },
    {
        "stopPointRef": "de:14612:260",
        "stopPointName": "Dammweg",
        "locationName": "Dresden",
        "longitude": "13.74536",
        "latitude": "51.06827"
    },
    {
        "stopPointRef": "de:14612:261",
        "stopPointName": "Louisenstra\u00dfe",
        "locationName": "Dresden",
        "longitude": "13.74764",
        "latitude": "51.06796"
    },
    {
        "stopPointRef": "de:14612:262",
        "stopPointName": "Bischofsweg",
        "locationName": "Dresden",
        "longitude": "13.75074",
        "latitude": "51.07143"
    },
    {
        "stopPointRef": "de:14612:263",
        "stopPointName": "Alaunplatz",
        "locationName": "Dresden",
        "longitude": "13.75550",
        "latitude": "51.06991"
    },
    {
        "stopPointRef": "de:14612:264",
        "stopPointName": "G\u00f6rlitzer Stra\u00dfe",
        "locationName": "Dresden",
        "longitude": "13.75370",
        "latitude": "51.06610"
    },
    {
        "stopPointRef": "de:14612:265",
        "stopPointName": "Stauffenbergallee",
        "locationName": "Dresden",
        "longitude": "13.75554",
        "latitude": "51.07662"
    },
    {
        "stopPointRef": "de:14612:266",
        "stopPointName": "Heeresb\u00e4ckerei",
        "locationName": "Dresden",
        "longitude": "13.76012",
        "latitude": "51.08188"
    },
    {
        "stopPointRef": "de:14612:267",
        "stopPointName": "S-Bf. Industriegel\u00e4nde",
        "locationName": "Dresden",
        "longitude": "13.76303",
        "latitude": "51.08699"
    },
    {
        "stopPointRef": "de:14612:268",
        "stopPointName": "Hellersiedlung",
        "locationName": "Dresden",
        "longitude": "13.76502",
        "latitude": "51.09174"
    },
    {
        "stopPointRef": "de:14612:269",
        "stopPointName": "Moritzburger Weg",
        "locationName": "Dresden",
        "longitude": "13.76868",
        "latitude": "51.09911"
    },
    {
        "stopPointRef": "de:14612:27",
        "stopPointName": "Budapester Stra\u00dfe",
        "locationName": "Dresden",
        "longitude": "13.72489",
        "latitude": "51.04375"
    },
    {
        "stopPointRef": "de:14612:270",
        "stopPointName": "Infineon S\u00fcd",
        "locationName": "Dresden",
        "longitude": "13.77010",
        "latitude": "51.10286"
    },
    {
        "stopPointRef": "de:14612:271",
        "stopPointName": "Am Hellerrand",
        "locationName": "Dresden",
        "longitude": "13.76338",
        "latitude": "51.11084"
    },
    {
        "stopPointRef": "de:14612:272",
        "stopPointName": "Heinrich-Tessenow-Weg",
        "locationName": "Dresden",
        "longitude": "13.75949",
        "latitude": "51.11244"
    },
    {
        "stopPointRef": "de:14612:273",
        "stopPointName": "Festspielhaus Hellerau",
        "locationName": "Dresden",
        "longitude": "13.75111",
        "latitude": "51.11254"
    },
    {
        "stopPointRef": "de:14612:274",
        "stopPointName": "Brunnenweg",
        "locationName": "Dresden",
        "longitude": "13.74597",
        "latitude": "51.11563"
    },
    {
        "stopPointRef": "de:14612:275",
        "stopPointName": "Hellerau Kiefernweg",
        "locationName": "Dresden",
        "longitude": "13.74069",
        "latitude": "51.11679"
    },
    {
        "stopPointRef": "de:14612:276",
        "stopPointName": "Infineon Nord",
        "locationName": "Dresden",
        "longitude": "13.77286",
        "latitude": "51.10759"
    },
    {
        "stopPointRef": "de:14612:277",
        "stopPointName": "Karl-Marx-Stra\u00dfe",
        "locationName": "Dresden",
        "longitude": "13.77576",
        "latitude": "51.11061"
    },
    {
        "stopPointRef": "de:14612:278",
        "stopPointName": "Zur Neuen Br\u00fccke",
        "locationName": "Dresden",
        "longitude": "13.78379",
        "latitude": "51.11423"
    },
    {
        "stopPointRef": "de:14612:279",
        "stopPointName": "K\u00e4the-Kollwitz-Platz",
        "locationName": "Dresden",
        "longitude": "13.78951",
        "latitude": "51.11847"
    },
    {
        "stopPointRef": "de:14612:28",
        "stopPointName": "Hauptbahnhof",
        "locationName": "Dresden",
        "longitude": "13.73293",
        "latitude": "51.03993"
    },
    {
        "stopPointRef": "de:14612:280",
        "stopPointName": "Arkonastra\u00dfe",
        "locationName": "Dresden",
        "longitude": "13.79123",
        "latitude": "51.12311"
    },
    {
        "stopPointRef": "de:14612:281",
        "stopPointName": "Industriepark Klotzsche",
        "locationName": "Dresden",
        "longitude": "13.79280",
        "latitude": "51.12761"
    },
    {
        "stopPointRef": "de:14612:287",
        "stopPointName": "Hans-Oster-Stra\u00dfe",
        "locationName": "Dresden",
        "longitude": "13.76065",
        "latitude": "51.07491"
    },
    {
        "stopPointRef": "de:14612:288",
        "stopPointName": "Dresden Kleines Haus (Glacisstra\u00dfe)",
        "locationName": "Dresden",
        "longitude": "13.75004",
        "latitude": "51.06149"
    },
    {
        "stopPointRef": "de:14612:289",
        "stopPointName": "Dresden Kamenzer Stra\u00dfe",
        "locationName": "Dresden",
        "longitude": "13.75996",
        "latitude": "51.07013"
    },
    {
        "stopPointRef": "de:14612:29",
        "stopPointName": "Walpurgisstra\u00dfe",
        "locationName": "Dresden",
        "longitude": "13.73778",
        "latitude": "51.04382"
    },
    {
        "stopPointRef": "de:14612:290",
        "stopPointName": "Pulsnitzer Stra\u00dfe",
        "locationName": "Dresden",
        "longitude": "13.75754",
        "latitude": "51.06330"
    },
    {
        "stopPointRef": "de:14612:291",
        "stopPointName": "Diakonissenkrankenhaus",
        "locationName": "Dresden",
        "longitude": "13.76243",
        "latitude": "51.06426"
    },
    {
        "stopPointRef": "de:14612:292",
        "stopPointName": "Nordstra\u00dfe",
        "locationName": "Dresden",
        "longitude": "13.76937",
        "latitude": "51.06614"
    },
    {
        "stopPointRef": "de:14612:293",
        "stopPointName": "Waldschl\u00f6\u00dfchen",
        "locationName": "Dresden",
        "longitude": "13.77741",
        "latitude": "51.06740"
    },
    {
        "stopPointRef": "de:14612:294",
        "stopPointName": "Angelikastra\u00dfe",
        "locationName": "Dresden",
        "longitude": "13.78374",
        "latitude": "51.06700"
    },
    {
        "stopPointRef": "de:14612:295",
        "stopPointName": "Wilhelminenstra\u00dfe",
        "locationName": "Dresden",
        "longitude": "13.78867",
        "latitude": "51.06712"
    },
    {
        "stopPointRef": "de:14612:296",
        "stopPointName": "Elbschl\u00f6sser",
        "locationName": "Dresden",
        "longitude": "13.79776",
        "latitude": "51.06595"
    },
    {
        "stopPointRef": "de:14612:297",
        "stopPointName": "Mordgrundbr\u00fccke",
        "locationName": "Dresden",
        "longitude": "13.81170",
        "latitude": "51.06430"
    },
    {
        "stopPointRef": "de:14612:298",
        "stopPointName": "Plattleite",
        "locationName": "Dresden",
        "longitude": "13.82150",
        "latitude": "51.06376"
    },
    {
        "stopPointRef": "de:14612:299",
        "stopPointName": "Am Wei\u00dfen Adler",
        "locationName": "Dresden",
        "longitude": "13.83126",
        "latitude": "51.06187"
    },
    {
        "stopPointRef": "de:14612:3",
        "stopPointName": "Prager Stra\u00dfe",
        "locationName": "Dresden",
        "longitude": "13.73783",
        "latitude": "51.04715"
    },
    {
        "stopPointRef": "de:14612:30",
        "stopPointName": "Gret-Palucca-Stra\u00dfe",
        "locationName": "Dresden",
        "longitude": "13.73972",
        "latitude": "51.03883"
    },
    {
        "stopPointRef": "de:14612:300",
        "stopPointName": "Schwimmhalle B\u00fchlau",
        "locationName": "Dresden",
        "longitude": "13.83892",
        "latitude": "51.06223"
    },
    {
        "stopPointRef": "de:14612:301",
        "stopPointName": "Grundstra\u00dfe",
        "locationName": "Dresden",
        "longitude": "13.84851",
        "latitude": "51.06183"
    },
    {
        "stopPointRef": "de:14612:302",
        "stopPointName": "B\u00fchlau Ullersdorfer Platz",
        "locationName": "Dresden",
        "longitude": "13.85463",
        "latitude": "51.06215"
    },
    {
        "stopPointRef": "de:14612:305",
        "stopPointName": "Hegereiterstra\u00dfe",
        "locationName": "Dresden",
        "longitude": "13.84367",
        "latitude": "51.06196"
    },
    {
        "stopPointRef": "de:14612:309",
        "stopPointName": "Weberplatz",
        "locationName": "Dresden",
        "longitude": "13.75087",
        "latitude": "51.03126"
    },
    {
        "stopPointRef": "de:14612:310",
        "stopPointName": "Dresden Heinrich-Greif-Stra\u00dfe",
        "locationName": "Dresden",
        "longitude": "13.74164",
        "latitude": "51.02400"
    },
    {
        "stopPointRef": "de:14612:311",
        "stopPointName": "Strehlener Platz",
        "locationName": "Dresden",
        "longitude": "13.74927",
        "latitude": "51.03376"
    },
    {
        "stopPointRef": "de:14612:312",
        "stopPointName": "Zellescher Weg",
        "locationName": "Dresden",
        "longitude": "13.74585",
        "latitude": "51.02837"
    },
    {
        "stopPointRef": "de:14612:313",
        "stopPointName": "R\u00e4cknitzh\u00f6he",
        "locationName": "Dresden",
        "longitude": "13.74247",
        "latitude": "51.02354"
    },
    {
        "stopPointRef": "de:14612:314",
        "stopPointName": "M\u00fcnzmeisterstra\u00dfe",
        "locationName": "Dresden",
        "longitude": "13.74192",
        "latitude": "51.01945"
    },
    {
        "stopPointRef": "de:14612:32",
        "stopPointName": "Hauptbahnhof Nord",
        "locationName": "Dresden",
        "longitude": "13.73509",
        "latitude": "51.04137"
    },
    {
        "stopPointRef": "de:14612:321",
        "stopPointName": "Albert-Wolf-Platz",
        "locationName": "Dresden",
        "longitude": "13.80332",
        "latitude": "51.00836"
    },
    {
        "stopPointRef": "de:14612:322",
        "stopPointName": "Jacob-Winter-Platz",
        "locationName": "Dresden",
        "longitude": "13.79904",
        "latitude": "51.00524"
    },
    {
        "stopPointRef": "de:14612:323",
        "stopPointName": "Georg-Palitzsch-Stra\u00dfe",
        "locationName": "Dresden",
        "longitude": "13.79786",
        "latitude": "51.00212"
    },
    {
        "stopPointRef": "de:14612:324",
        "stopPointName": "Prohlis Kaufpark Nickern",
        "locationName": "Dresden",
        "longitude": "13.79960",
        "latitude": "50.99851"
    },
    {
        "stopPointRef": "de:14612:325",
        "stopPointName": "Dresden Am Kr\u00e4henh\u00fcgel",
        "locationName": "Dresden",
        "longitude": "13.80647",
        "latitude": "50.98418"
    },
    {
        "stopPointRef": "de:14612:326",
        "stopPointName": "Dresden Am Viertelacker",
        "locationName": "Dresden",
        "longitude": "13.81283",
        "latitude": "50.98722"
    },
    {
        "stopPointRef": "de:14612:33",
        "stopPointName": "Webergasse",
        "locationName": "Dresden",
        "longitude": "13.73450",
        "latitude": "51.04806"
    },
    {
        "stopPointRef": "de:14612:331",
        "stopPointName": "Julius-Vahlteich-Stra\u00dfe",
        "locationName": "Dresden",
        "longitude": "13.68001",
        "latitude": "51.04286"
    },
    {
        "stopPointRef": "de:14612:332",
        "stopPointName": "Dahlienweg",
        "locationName": "Dresden",
        "longitude": "13.67982",
        "latitude": "51.04623"
    },
    {
        "stopPointRef": "de:14612:333",
        "stopPointName": "Coventrystra\u00dfe",
        "locationName": "Dresden",
        "longitude": "13.68069",
        "latitude": "51.04820"
    },
    {
        "stopPointRef": "de:14612:334",
        "stopPointName": "Amalie-Dietrich-Platz",
        "locationName": "Dresden",
        "longitude": "13.67795",
        "latitude": "51.04532"
    },
    {
        "stopPointRef": "de:14612:335",
        "stopPointName": "Merianplatz",
        "locationName": "Dresden",
        "longitude": "13.66998",
        "latitude": "51.04457"
    },
    {
        "stopPointRef": "de:14612:336",
        "stopPointName": "Kirschenstra\u00dfe",
        "locationName": "Dresden",
        "longitude": "13.66364",
        "latitude": "51.04597"
    },
    {
        "stopPointRef": "de:14612:337",
        "stopPointName": "Schlehenstra\u00dfe",
        "locationName": "Dresden",
        "longitude": "13.65913",
        "latitude": "51.04891"
    },
    {
        "stopPointRef": "de:14612:338",
        "stopPointName": "Betriebshof Gorbitz",
        "locationName": "Dresden",
        "longitude": "13.65299",
        "latitude": "51.04685"
    },
    {
        "stopPointRef": "de:14612:34",
        "stopPointName": "Ammonstra\u00dfe \/ Budapester Stra\u00dfe",
        "locationName": "Dresden",
        "longitude": "13.72600",
        "latitude": "51.04384"
    },
    {
        "stopPointRef": "de:14612:340",
        "stopPointName": "Altnossener Stra\u00dfe",
        "locationName": "Dresden",
        "longitude": "13.64554",
        "latitude": "51.04002"
    },
    {
        "stopPointRef": "de:14612:341",
        "stopPointName": "Rudolf-Walther-Stra\u00dfe",
        "locationName": "Gompitz",
        "longitude": "13.63786",
        "latitude": "51.03889"
    },
    {
        "stopPointRef": "de:14612:342",
        "stopPointName": "Gompitzer H\u00f6he",
        "locationName": "Gompitz",
        "longitude": "13.63250",
        "latitude": "51.04018"
    },
    {
        "stopPointRef": "de:14612:344",
        "stopPointName": "Gleisschleife",
        "locationName": "Pennrich (Dresden)",
        "longitude": "13.62581",
        "latitude": "51.04070"
    },
    {
        "stopPointRef": "de:14612:35",
        "stopPointName": "Am Zwingerteich",
        "locationName": "Dresden",
        "longitude": "13.73037",
        "latitude": "51.05447"
    },
    {
        "stopPointRef": "de:14612:36",
        "stopPointName": "Hauptbahnhof (Strehlener Str.)",
        "locationName": "Dresden",
        "longitude": "13.73428",
        "latitude": "51.03867"
    },
    {
        "stopPointRef": "de:14612:37",
        "stopPointName": "Postplatz",
        "locationName": "Dresden",
        "longitude": "13.73352",
        "latitude": "51.05084"
    },
    {
        "stopPointRef": "de:14612:390",
        "stopPointName": "Dresden Neust\u00e4dter Hafen",
        "locationName": "Dresden",
        "longitude": "13.73147",
        "latitude": "51.06456"
    },
    {
        "stopPointRef": "de:14612:393",
        "stopPointName": "Wormser Stra\u00dfe",
        "locationName": "Dresden",
        "longitude": "13.78235",
        "latitude": "51.04763"
    },
    {
        "stopPointRef": "de:14612:394",
        "stopPointName": "Dresden Tittmannstra\u00dfe",
        "locationName": "Dresden",
        "longitude": "13.78201",
        "latitude": "51.04724"
    },
    {
        "stopPointRef": "de:14612:395",
        "stopPointName": "Dresden Stephanienplatz",
        "locationName": "Dresden",
        "longitude": "13.76533",
        "latitude": "51.04770"
    },
    {
        "stopPointRef": "de:14612:398",
        "stopPointName": "Dresden Pillnitz Keppschloss",
        "locationName": "Dresden",
        "longitude": "13.86112",
        "latitude": "51.01929"
    },
    {
        "stopPointRef": "de:14612:399",
        "stopPointName": "Dresden Pillnitz Schule",
        "locationName": "Dresden",
        "longitude": "13.86529",
        "latitude": "51.01655"
    },
    {
        "stopPointRef": "de:14612:4",
        "stopPointName": "Altmarkt",
        "locationName": "Dresden",
        "longitude": "13.73851",
        "latitude": "51.05025"
    },
    {
        "stopPointRef": "de:14612:40",
        "stopPointName": "G\u00fcntzplatz",
        "locationName": "Dresden",
        "longitude": "13.75938",
        "latitude": "51.05364"
    },
    {
        "stopPointRef": "de:14612:400",
        "stopPointName": "Dresden F\u00e4hrstelle Pieschen",
        "locationName": "Dresden",
        "longitude": "13.71681",
        "latitude": "51.07691"
    },
    {
        "stopPointRef": "de:14612:402",
        "stopPointName": "F\u00e4hrstelle Kleinzschachwitz",
        "locationName": "Dresden",
        "longitude": "13.86191",
        "latitude": "51.01001"
    },
    {
        "stopPointRef": "de:14612:403",
        "stopPointName": "F\u00e4hrstelle Pillnitz",
        "locationName": "Dresden",
        "longitude": "13.86349",
        "latitude": "51.01107"
    },
    {
        "stopPointRef": "de:14612:404",
        "stopPointName": "Pillnitz Dampfschifffahrt SDS",
        "locationName": "Dresden",
        "longitude": "13.87302",
        "latitude": "51.00620"
    },
    {
        "stopPointRef": "de:14612:406",
        "stopPointName": "F\u00e4hrstelle Laubegast",
        "locationName": "Dresden",
        "longitude": "13.83761",
        "latitude": "51.03172"
    },
    {
        "stopPointRef": "de:14612:407",
        "stopPointName": "F\u00e4hrstelle Niederpoyritz",
        "locationName": "Dresden",
        "longitude": "13.83945",
        "latitude": "51.03223"
    },
    {
        "stopPointRef": "de:14612:408",
        "stopPointName": "F\u00e4hrstelle Johannstadt",
        "locationName": "Dresden",
        "longitude": "13.76650",
        "latitude": "51.06172"
    },
    {
        "stopPointRef": "de:14612:409",
        "stopPointName": "F\u00e4hrstelle Neustadt",
        "locationName": "Dresden",
        "longitude": "13.76549",
        "latitude": "51.06280"
    },
    {
        "stopPointRef": "de:14612:41",
        "stopPointName": "Permoserstra\u00dfe",
        "locationName": "Dresden",
        "longitude": "13.76355",
        "latitude": "51.05315"
    },
    {
        "stopPointRef": "de:14612:411",
        "stopPointName": "Podemuser Stra\u00dfe",
        "locationName": "Pennrich (Dresden)",
        "longitude": "13.62327",
        "latitude": "51.04338"
    },
    {
        "stopPointRef": "de:14612:414",
        "stopPointName": "Hohlweg",
        "locationName": "Gompitz",
        "longitude": "13.63502",
        "latitude": "51.04313"
    },
    {
        "stopPointRef": "de:14612:415",
        "stopPointName": "Schule",
        "locationName": "Gompitz",
        "longitude": "13.64161",
        "latitude": "51.04191"
    },
    {
        "stopPointRef": "de:14612:419",
        "stopPointName": "Oskar-Maune-Stra\u00dfe",
        "locationName": "Pennrich (Dresden)",
        "longitude": "13.62587",
        "latitude": "51.04332"
    },
    {
        "stopPointRef": "de:14612:42",
        "stopPointName": "Trinitatisplatz",
        "locationName": "Dresden",
        "longitude": "13.76983",
        "latitude": "51.05245"
    },
    {
        "stopPointRef": "de:14612:420",
        "stopPointName": "Am Querfeld",
        "locationName": "Dresden",
        "longitude": "13.64748",
        "latitude": "51.05625"
    },
    {
        "stopPointRef": "de:14612:421",
        "stopPointName": "Ockerwitz",
        "locationName": "Dresden",
        "longitude": "13.64302",
        "latitude": "51.05564"
    },
    {
        "stopPointRef": "de:14612:422",
        "stopPointName": "Roitzsch (Dresden)",
        "locationName": "Roitzsch (Dresden)",
        "longitude": "13.60702",
        "latitude": "51.05568"
    },
    {
        "stopPointRef": "de:14612:423",
        "stopPointName": "Abzweig Roitzsch",
        "locationName": "Unkersdorf",
        "longitude": "13.59904",
        "latitude": "51.05355"
    },
    {
        "stopPointRef": "de:14612:424",
        "stopPointName": "Gasthof",
        "locationName": "Steinbach (Dresden)",
        "longitude": "13.60286",
        "latitude": "51.04434"
    },
    {
        "stopPointRef": "de:14612:425",
        "stopPointName": "Kirche",
        "locationName": "Unkersdorf",
        "longitude": "13.59107",
        "latitude": "51.05813"
    },
    {
        "stopPointRef": "de:14612:427",
        "stopPointName": "Teichweg",
        "locationName": "Unkersdorf",
        "longitude": "13.59223",
        "latitude": "51.05586"
    },
    {
        "stopPointRef": "de:14612:428",
        "stopPointName": "Zschonerbach",
        "locationName": "Z\u00f6llmen",
        "longitude": "13.61179",
        "latitude": "51.04459"
    },
    {
        "stopPointRef": "de:14612:43",
        "stopPointName": "Blasewitzer Stra\u00dfe \/ Fetscherstra\u00dfe",
        "locationName": "Dresden",
        "longitude": "13.77770",
        "latitude": "51.05289"
    },
    {
        "stopPointRef": "de:14612:430",
        "stopPointName": "Altleuteritz",
        "locationName": "Alt-Leuteritz\/Brabsch\u00fctz",
        "longitude": "13.63599",
        "latitude": "51.07081"
    },
    {
        "stopPointRef": "de:14612:431",
        "stopPointName": "Kohlsdorfer Landstra\u00dfe",
        "locationName": "Gompitz",
        "longitude": "13.63334",
        "latitude": "51.03681"
    },
    {
        "stopPointRef": "de:14612:434",
        "stopPointName": "Dorfplatz",
        "locationName": "Alt-Leuteritz\/Brabsch\u00fctz",
        "longitude": "13.62148",
        "latitude": "51.06969"
    },
    {
        "stopPointRef": "de:14612:436",
        "stopPointName": "Gewerbegebiet",
        "locationName": "Merbitz\/Podemus",
        "longitude": "13.63737",
        "latitude": "51.06863"
    },
    {
        "stopPointRef": "de:14612:437",
        "stopPointName": "Autobahnbr\u00fccke",
        "locationName": "Merbitz\/Podemus",
        "longitude": "13.63861",
        "latitude": "51.06950"
    },
    {
        "stopPointRef": "de:14612:44",
        "stopPointName": "Gabelsbergerstra\u00dfe",
        "locationName": "Dresden",
        "longitude": "13.77450",
        "latitude": "51.04961"
    },
    {
        "stopPointRef": "de:14612:440",
        "stopPointName": "Podemus Post",
        "locationName": "Merbitz\/Podemus",
        "longitude": "13.62718",
        "latitude": "51.06012"
    },
    {
        "stopPointRef": "de:14612:441",
        "stopPointName": "Roitzscher Stra\u00dfe",
        "locationName": "Merbitz\/Podemus",
        "longitude": "13.62580",
        "latitude": "51.06157"
    },
    {
        "stopPointRef": "de:14612:442",
        "stopPointName": "Zschonergrundm\u00fchle",
        "locationName": "Merbitz\/Podemus",
        "longitude": "13.64100",
        "latitude": "51.05852"
    },
    {
        "stopPointRef": "de:14612:444",
        "stopPointName": "Kirchenweg",
        "locationName": "Mobschatz",
        "longitude": "13.64503",
        "latitude": "51.07493"
    },
    {
        "stopPointRef": "de:14612:445",
        "stopPointName": "Hauptstra\u00dfe",
        "locationName": "Rennersdorf (Dresden)",
        "longitude": "13.60984",
        "latitude": "51.06917"
    },
    {
        "stopPointRef": "de:14612:446",
        "stopPointName": "Dorfplatz",
        "locationName": "Mobschatz",
        "longitude": "13.64422",
        "latitude": "51.07572"
    },
    {
        "stopPointRef": "de:14612:447",
        "stopPointName": "Am Tummelsgrund",
        "locationName": "Mobschatz",
        "longitude": "13.64513",
        "latitude": "51.07795"
    },
    {
        "stopPointRef": "de:14612:448",
        "stopPointName": "Am Hang",
        "locationName": "Mobschatz",
        "longitude": "13.64107",
        "latitude": "51.08128"
    },
    {
        "stopPointRef": "de:14612:45",
        "stopPointName": "Universit\u00e4tsklinikum",
        "locationName": "Dresden",
        "longitude": "13.78096",
        "latitude": "51.05652"
    },
    {
        "stopPointRef": "de:14612:450",
        "stopPointName": "Bahnhof",
        "locationName": "Cossebaude\/Neu-Leuteritz",
        "longitude": "13.63163",
        "latitude": "51.08535"
    },
    {
        "stopPointRef": "de:14612:451",
        "stopPointName": "Albertplatz",
        "locationName": "Cossebaude\/Neu-Leuteritz",
        "longitude": "13.61172",
        "latitude": "51.08229"
    },
    {
        "stopPointRef": "de:14612:452",
        "stopPointName": "Gewerbegebiet",
        "locationName": "Cossebaude\/Neu-Leuteritz",
        "longitude": "13.63972",
        "latitude": "51.08186"
    },
    {
        "stopPointRef": "de:14612:453",
        "stopPointName": "Alte Feuerwehr",
        "locationName": "Cossebaude\/Neu-Leuteritz",
        "longitude": "13.62889",
        "latitude": "51.08510"
    },
    {
        "stopPointRef": "de:14612:454",
        "stopPointName": "Erna-Berger-Stra\u00dfe",
        "locationName": "Cossebaude\/Neu-Leuteritz",
        "longitude": "13.62848",
        "latitude": "51.08787"
    },
    {
        "stopPointRef": "de:14612:455",
        "stopPointName": "Weinbergstra\u00dfe",
        "locationName": "Cossebaude\/Neu-Leuteritz",
        "longitude": "13.62592",
        "latitude": "51.08360"
    },
    {
        "stopPointRef": "de:14612:456",
        "stopPointName": "Sonnenleite",
        "locationName": "Cossebaude\/Neu-Leuteritz",
        "longitude": "13.62328",
        "latitude": "51.08443"
    },
    {
        "stopPointRef": "de:14612:457",
        "stopPointName": "Parkweg",
        "locationName": "Cossebaude\/Neu-Leuteritz",
        "longitude": "13.61598",
        "latitude": "51.08289"
    },
    {
        "stopPointRef": "de:14612:458",
        "stopPointName": "Ludwigstra\u00dfe",
        "locationName": "Cossebaude\/Neu-Leuteritz",
        "longitude": "13.63561",
        "latitude": "51.08732"
    },
    {
        "stopPointRef": "de:14612:459",
        "stopPointName": "Gohliser Weg",
        "locationName": "Cossebaude\/Neu-Leuteritz",
        "longitude": "13.63942",
        "latitude": "51.08697"
    },
    {
        "stopPointRef": "de:14612:46",
        "stopPointName": "Pfotenhauerstra\u00dfe",
        "locationName": "Dresden",
        "longitude": "13.77788",
        "latitude": "51.05879"
    },
    {
        "stopPointRef": "de:14612:460",
        "stopPointName": "Schulstra\u00dfe",
        "locationName": "Cossebaude\/Neu-Leuteritz",
        "longitude": "13.63148",
        "latitude": "51.08789"
    },
    {
        "stopPointRef": "de:14612:461",
        "stopPointName": "Talstra\u00dfe",
        "locationName": "Cossebaude\/Neu-Leuteritz",
        "longitude": "13.61371",
        "latitude": "51.07908"
    },
    {
        "stopPointRef": "de:14612:463",
        "stopPointName": "An den Winkelwiesen (Stauseebad)",
        "locationName": "Cossebaude\/Neu-Leuteritz",
        "longitude": "13.62251",
        "latitude": "51.08912"
    },
    {
        "stopPointRef": "de:14612:464",
        "stopPointName": "Friedhofsweg",
        "locationName": "Cossebaude\/Neu-Leuteritz",
        "longitude": "13.62029",
        "latitude": "51.08026"
    },
    {
        "stopPointRef": "de:14612:469",
        "stopPointName": "Gohlis",
        "locationName": "Dresden",
        "longitude": "13.64584",
        "latitude": "51.08494"
    },
    {
        "stopPointRef": "de:14612:47",
        "stopPointName": "Johannstadt",
        "locationName": "Dresden",
        "longitude": "13.78240",
        "latitude": "51.05920"
    },
    {
        "stopPointRef": "de:14612:470",
        "stopPointName": "Haltepunkt",
        "locationName": "Niederwartha",
        "longitude": "13.60640",
        "latitude": "51.09375"
    },
    {
        "stopPointRef": "de:14612:472",
        "stopPointName": "Amselgrund",
        "locationName": "Niederwartha",
        "longitude": "13.61366",
        "latitude": "51.08852"
    },
    {
        "stopPointRef": "de:14612:473",
        "stopPointName": "Niederwartha Rohrbahn",
        "locationName": "Niederwartha",
        "longitude": "13.60923",
        "latitude": "51.09048"
    },
    {
        "stopPointRef": "de:14612:474",
        "stopPointName": "Hermann-Gro\u00dfe-Stra\u00dfe",
        "locationName": "Niederwartha",
        "longitude": "13.60674",
        "latitude": "51.08997"
    },
    {
        "stopPointRef": "de:14612:475",
        "stopPointName": "Oberwarthaer Stra\u00dfe",
        "locationName": "Niederwartha",
        "longitude": "13.60336",
        "latitude": "51.09142"
    },
    {
        "stopPointRef": "de:14612:477",
        "stopPointName": "Dorotheenstra\u00dfe",
        "locationName": "Oberwartha",
        "longitude": "13.60838",
        "latitude": "51.08129"
    },
    {
        "stopPointRef": "de:14612:478",
        "stopPointName": "Friedensplatz",
        "locationName": "Oberwartha",
        "longitude": "13.60323",
        "latitude": "51.08079"
    },
    {
        "stopPointRef": "de:14612:479",
        "stopPointName": "H\u00e4ssige Stra\u00dfe",
        "locationName": "Oberwartha",
        "longitude": "13.61064",
        "latitude": "51.07854"
    },
    {
        "stopPointRef": "de:14612:48",
        "stopPointName": "Augsburger Stra\u00dfe",
        "locationName": "Dresden",
        "longitude": "13.78167",
        "latitude": "51.05328"
    },
    {
        "stopPointRef": "de:14612:482",
        "stopPointName": "Dresden Hepke-\/Altenberger Str",
        "locationName": "Dresden",
        "longitude": "13.80895",
        "latitude": "51.03152"
    },
    {
        "stopPointRef": "de:14612:485",
        "stopPointName": "Dresden August-Bebel-Stra\u00dfe",
        "locationName": "Dresden",
        "longitude": "13.75599",
        "latitude": "51.02977"
    },
    {
        "stopPointRef": "de:14612:486",
        "stopPointName": "Dresden Hettnerstra\u00dfe",
        "locationName": "Dresden",
        "longitude": "13.72739",
        "latitude": "51.03033"
    },
    {
        "stopPointRef": "de:14612:487",
        "stopPointName": "Dresden, Energiemuseum",
        "locationName": "Dresden",
        "longitude": "13.72300",
        "latitude": "51.05385"
    },
    {
        "stopPointRef": "de:14612:488",
        "stopPointName": "Dresden Hochschule f\u00fcr Technik und Wirtschaft",
        "locationName": "Dresden",
        "longitude": "13.73595",
        "latitude": "51.03549"
    },
    {
        "stopPointRef": "de:14612:489",
        "stopPointName": "Dresden Maternistra\u00dfe (Boulevardtheater)",
        "locationName": "Dresden",
        "longitude": "13.72357",
        "latitude": "51.04915"
    },
    {
        "stopPointRef": "de:14612:49",
        "stopPointName": "K\u00f6nigsheimplatz",
        "locationName": "Dresden",
        "longitude": "13.78694",
        "latitude": "51.05382"
    },
    {
        "stopPointRef": "de:14612:490",
        "stopPointName": "Dresden Taschenbergpalais",
        "locationName": "Dresden",
        "longitude": "13.73523",
        "latitude": "51.05246"
    },
    {
        "stopPointRef": "de:14612:491",
        "stopPointName": "Dresden Albertinum",
        "locationName": "Dresden",
        "longitude": "13.74526",
        "latitude": "51.05165"
    },
    {
        "stopPointRef": "de:14612:492",
        "stopPointName": "Dresden Botanischer Garten",
        "locationName": "Dresden",
        "longitude": "13.75967",
        "latitude": "51.04420"
    },
    {
        "stopPointRef": "de:14612:493",
        "stopPointName": "Dresden Technische Sammlungen",
        "locationName": "Dresden",
        "longitude": "13.79742",
        "latitude": "51.04239"
    },
    {
        "stopPointRef": "de:14612:494",
        "stopPointName": "Dresden Kraszewskimuseum",
        "locationName": "Dresden",
        "longitude": "13.76135",
        "latitude": "51.06818"
    },
    {
        "stopPointRef": "de:14612:495",
        "stopPointName": "Dresden Milit\u00e4rhistorisches Museum",
        "locationName": "Dresden",
        "longitude": "13.75784",
        "latitude": "51.08038"
    },
    {
        "stopPointRef": "de:14612:496",
        "stopPointName": "Dresden Schlo\u00dfplatz",
        "locationName": "Dresden",
        "longitude": "13.73809",
        "latitude": "51.05390"
    },
    {
        "stopPointRef": "de:14612:497",
        "stopPointName": "Dresden Theaterkahn",
        "locationName": "Dresden",
        "longitude": "13.73797",
        "latitude": "51.05441"
    },
    {
        "stopPointRef": "de:14612:498",
        "stopPointName": "Dresden Schulmuseum (Bf Mitte)",
        "locationName": "Dresden",
        "longitude": "13.72177",
        "latitude": "51.05578"
    },
    {
        "stopPointRef": "de:14612:499",
        "stopPointName": "Dresden Panometer",
        "locationName": "Dresden",
        "longitude": "13.78968",
        "latitude": "51.02412"
    },
    {
        "stopPointRef": "de:14612:5",
        "stopPointName": "Pirnaischer Platz",
        "locationName": "Dresden",
        "longitude": "13.74400",
        "latitude": "51.04948"
    },
    {
        "stopPointRef": "de:14612:50",
        "stopPointName": "Lene-Glatzer-Stra\u00dfe",
        "locationName": "Dresden",
        "longitude": "13.79235",
        "latitude": "51.05378"
    },
    {
        "stopPointRef": "de:14612:500",
        "stopPointName": "Dresden Gorbitz-Center",
        "locationName": "Dresden",
        "longitude": "13.66219",
        "latitude": "51.05094"
    },
    {
        "stopPointRef": "de:14612:501",
        "stopPointName": "Omsewitz",
        "locationName": "Dresden",
        "longitude": "13.65815",
        "latitude": "51.05299"
    },
    {
        "stopPointRef": "de:14612:502",
        "stopPointName": "Adalbert-Stifter-Weg",
        "locationName": "Dresden",
        "longitude": "13.65977",
        "latitude": "51.05246"
    },
    {
        "stopPointRef": "de:14612:503",
        "stopPointName": "Altomsewitz",
        "locationName": "Dresden",
        "longitude": "13.66019",
        "latitude": "51.05295"
    },
    {
        "stopPointRef": "de:14612:504",
        "stopPointName": "Altburgst\u00e4dtel",
        "locationName": "Dresden",
        "longitude": "13.66382",
        "latitude": "51.05361"
    },
    {
        "stopPointRef": "de:14612:505",
        "stopPointName": "Lise-Meitner-Stra\u00dfe",
        "locationName": "Dresden",
        "longitude": "13.66665",
        "latitude": "51.05390"
    },
    {
        "stopPointRef": "de:14612:506",
        "stopPointName": "Gorbitzer Stra\u00dfe",
        "locationName": "Dresden",
        "longitude": "13.67272",
        "latitude": "51.05291"
    },
    {
        "stopPointRef": "de:14612:507",
        "stopPointName": "Grillparzerstra\u00dfe",
        "locationName": "Dresden",
        "longitude": "13.68190",
        "latitude": "51.05286"
    },
    {
        "stopPointRef": "de:14612:508",
        "stopPointName": "Tonbergstra\u00dfe",
        "locationName": "Dresden",
        "longitude": "13.68380",
        "latitude": "51.05712"
    },
    {
        "stopPointRef": "de:14612:509",
        "stopPointName": "Arthur-Weineck-Stra\u00dfe",
        "locationName": "Dresden",
        "longitude": "13.67736",
        "latitude": "51.05242"
    },
    {
        "stopPointRef": "de:14612:51",
        "stopPointName": "Prellerstra\u00dfe",
        "locationName": "Dresden",
        "longitude": "13.79871",
        "latitude": "51.05302"
    },
    {
        "stopPointRef": "de:14612:510",
        "stopPointName": "Kaitzer Stra\u00dfe",
        "locationName": "Dresden",
        "longitude": "13.71169",
        "latitude": "51.02815"
    },
    {
        "stopPointRef": "de:14612:511",
        "stopPointName": "Heinrich-Zille-Stra\u00dfe",
        "locationName": "Dresden",
        "longitude": "13.75728",
        "latitude": "51.02563"
    },
    {
        "stopPointRef": "de:14612:512",
        "stopPointName": "Stadtgutstra\u00dfe",
        "locationName": "Dresden",
        "longitude": "13.73625",
        "latitude": "51.02412"
    },
    {
        "stopPointRef": "de:14612:513",
        "stopPointName": "Regensburger Stra\u00dfe",
        "locationName": "Dresden",
        "longitude": "13.72082",
        "latitude": "51.02638"
    },
    {
        "stopPointRef": "de:14612:514",
        "stopPointName": "Am Anger",
        "locationName": "Dresden",
        "longitude": "13.78883",
        "latitude": "51.01211"
    },
    {
        "stopPointRef": "de:14612:515",
        "stopPointName": "Robert-Sterl-Stra\u00dfe",
        "locationName": "Dresden",
        "longitude": "13.76348",
        "latitude": "51.01606"
    },
    {
        "stopPointRef": "de:14612:516",
        "stopPointName": "Clausen-Dahl-Stra\u00dfe",
        "locationName": "Dresden",
        "longitude": "13.76114",
        "latitude": "51.01734"
    },
    {
        "stopPointRef": "de:14612:517",
        "stopPointName": "Schurichtstra\u00dfe",
        "locationName": "Dresden",
        "longitude": "13.75347",
        "latitude": "51.02468"
    },
    {
        "stopPointRef": "de:14612:518",
        "stopPointName": "Dresden Eissporthalle",
        "locationName": "Dresden",
        "longitude": "13.72133",
        "latitude": "51.06139"
    },
    {
        "stopPointRef": "de:14612:519",
        "stopPointName": "Dresden Ostragehege P+R",
        "locationName": "Dresden",
        "longitude": "13.72039",
        "latitude": "51.06764"
    },
    {
        "stopPointRef": "de:14612:52",
        "stopPointName": "Schillerplatz",
        "locationName": "Dresden",
        "longitude": "13.80487",
        "latitude": "51.05218"
    },
    {
        "stopPointRef": "de:14612:520",
        "stopPointName": "Alberthafen",
        "locationName": "Dresden",
        "longitude": "13.71565",
        "latitude": "51.06333"
    },
    {
        "stopPointRef": "de:14612:521",
        "stopPointName": "D\u00f6belner Stra\u00dfe",
        "locationName": "Dresden",
        "longitude": "13.73144",
        "latitude": "51.09076"
    },
    {
        "stopPointRef": "de:14612:522",
        "stopPointName": "Messe Dresden",
        "locationName": "Dresden",
        "longitude": "13.71429",
        "latitude": "51.06982"
    },
    {
        "stopPointRef": "de:14612:523",
        "stopPointName": "Messe Gleisschleife",
        "locationName": "Dresden",
        "longitude": "13.71490",
        "latitude": "51.07257"
    },
    {
        "stopPointRef": "de:14612:524",
        "stopPointName": "Dresden Pieschener Allee",
        "locationName": "Dresden",
        "longitude": "13.72859",
        "latitude": "51.06156"
    },
    {
        "stopPointRef": "de:14612:525",
        "stopPointName": "Dresden Sportpl\u00e4tze",
        "locationName": "Dresden",
        "longitude": "13.72476",
        "latitude": "51.06614"
    },
    {
        "stopPointRef": "de:14612:526",
        "stopPointName": "Messering (Halle 1)",
        "locationName": "Dresden",
        "longitude": "13.71647",
        "latitude": "51.06775"
    },
    {
        "stopPointRef": "de:14612:527",
        "stopPointName": "Dresden Heinz-Steyer-Stadion",
        "locationName": "Dresden",
        "longitude": "13.72606",
        "latitude": "51.05876"
    },
    {
        "stopPointRef": "de:14612:528",
        "stopPointName": "Kongresszentrum  (Devrientstr.)",
        "locationName": "Dresden",
        "longitude": "13.73165",
        "latitude": "51.05704"
    },
    {
        "stopPointRef": "de:14612:529",
        "stopPointName": "Dresden \u00c4u\u00dferer Matth\u00e4usfriedhof",
        "locationName": "Dresden",
        "longitude": "0.00000",
        "latitude": "0.00000"
    },
    {
        "stopPointRef": "de:14612:53",
        "stopPointName": "Kretschmerstra\u00dfe",
        "locationName": "Dresden",
        "longitude": "13.80810",
        "latitude": "51.05103"
    },
    {
        "stopPointRef": "de:14612:530",
        "stopPointName": "Th\u00e4terstra\u00dfe",
        "locationName": "Dresden",
        "longitude": "13.69509",
        "latitude": "51.07104"
    },
    {
        "stopPointRef": "de:14612:531",
        "stopPointName": "Mengsstra\u00dfe",
        "locationName": "Dresden",
        "longitude": "13.69431",
        "latitude": "51.06942"
    },
    {
        "stopPointRef": "de:14612:532",
        "stopPointName": "Albert-Hensel-Stra\u00dfe",
        "locationName": "Dresden",
        "longitude": "13.72795",
        "latitude": "51.09415"
    },
    {
        "stopPointRef": "de:14612:534",
        "stopPointName": "Dresden Innerer Katholischer Friedhof",
        "locationName": "Dresden",
        "longitude": "0.00000",
        "latitude": "0.00000"
    },
    {
        "stopPointRef": "de:14612:535",
        "stopPointName": "Mobschatzer H\u00f6he",
        "locationName": "Dresden",
        "longitude": "13.65170",
        "latitude": "51.06788"
    },
    {
        "stopPointRef": "de:14612:536",
        "stopPointName": "Am Zschonergrundbad",
        "locationName": "Dresden",
        "longitude": "13.65537",
        "latitude": "51.06819"
    },
    {
        "stopPointRef": "de:14612:537",
        "stopPointName": "Schleswiger Stra\u00dfe",
        "locationName": "Dresden",
        "longitude": "13.66038",
        "latitude": "51.06884"
    },
    {
        "stopPointRef": "de:14612:538",
        "stopPointName": "Schulberg",
        "locationName": "Dresden",
        "longitude": "13.67010",
        "latitude": "51.06757"
    },
    {
        "stopPointRef": "de:14612:539",
        "stopPointName": "Dresden Klingenberger Stra\u00dfe",
        "locationName": "Dresden",
        "longitude": "13.70955",
        "latitude": "51.03289"
    },
    {
        "stopPointRef": "de:14612:54",
        "stopPointName": "Heinrich-Sch\u00fctz-Stra\u00dfe",
        "locationName": "Dresden",
        "longitude": "13.81284",
        "latitude": "51.04604"
    },
    {
        "stopPointRef": "de:14612:540",
        "stopPointName": "Dresden Schwerterhaus",
        "locationName": "Dresden",
        "longitude": "13.70737",
        "latitude": "51.03264"
    },
    {
        "stopPointRef": "de:14612:541",
        "stopPointName": "Duckwitzstra\u00dfe",
        "locationName": "Dresden",
        "longitude": "13.72454",
        "latitude": "51.09564"
    },
    {
        "stopPointRef": "de:14612:542",
        "stopPointName": "Schunckstra\u00dfe",
        "locationName": "Dresden",
        "longitude": "13.67557",
        "latitude": "51.06422"
    },
    {
        "stopPointRef": "de:14612:543",
        "stopPointName": "Am Lehmberg",
        "locationName": "Dresden",
        "longitude": "13.67323",
        "latitude": "51.06420"
    },
    {
        "stopPointRef": "de:14612:544",
        "stopPointName": "Droste-H\u00fclshoff-Stra\u00dfe",
        "locationName": "Dresden",
        "longitude": "13.66741",
        "latitude": "51.06213"
    },
    {
        "stopPointRef": "de:14612:545",
        "stopPointName": "Martin-Opitz-Stra\u00dfe",
        "locationName": "Dresden",
        "longitude": "13.66205",
        "latitude": "51.05897"
    },
    {
        "stopPointRef": "de:14612:546",
        "stopPointName": "Freiheit",
        "locationName": "Dresden",
        "longitude": "13.65634",
        "latitude": "51.05830"
    },
    {
        "stopPointRef": "de:14612:547",
        "stopPointName": "Heroldstra\u00dfe",
        "locationName": "Dresden",
        "longitude": "13.67037",
        "latitude": "51.06283"
    },
    {
        "stopPointRef": "de:14612:548",
        "stopPointName": "Hammeraue",
        "locationName": "Dresden",
        "longitude": "13.66628",
        "latitude": "51.06793"
    },
    {
        "stopPointRef": "de:14612:549",
        "stopPointName": "Am Steinigt",
        "locationName": "Dresden",
        "longitude": "13.64889",
        "latitude": "51.05881"
    },
    {
        "stopPointRef": "de:14612:55",
        "stopPointName": "Gustav-Freytag-Stra\u00dfe",
        "locationName": "Dresden",
        "longitude": "13.81293",
        "latitude": "51.04181"
    },
    {
        "stopPointRef": "de:14612:550",
        "stopPointName": "Hp Kemnitz",
        "locationName": "Dresden",
        "longitude": "13.66894",
        "latitude": "51.07300"
    },
    {
        "stopPointRef": "de:14612:551",
        "stopPointName": "Merbitzer Stra\u00dfe",
        "locationName": "Dresden",
        "longitude": "13.67442",
        "latitude": "51.06713"
    },
    {
        "stopPointRef": "de:14612:552",
        "stopPointName": "Zschonergrundstra\u00dfe",
        "locationName": "Dresden",
        "longitude": "13.67043",
        "latitude": "51.07174"
    },
    {
        "stopPointRef": "de:14612:553",
        "stopPointName": "Flensburger Stra\u00dfe",
        "locationName": "Dresden",
        "longitude": "13.66620",
        "latitude": "51.07565"
    },
    {
        "stopPointRef": "de:14612:554",
        "stopPointName": "Podemusstra\u00dfe",
        "locationName": "Dresden",
        "longitude": "13.65928",
        "latitude": "51.07957"
    },
    {
        "stopPointRef": "de:14612:555",
        "stopPointName": "Am Urnenfeld",
        "locationName": "Dresden",
        "longitude": "13.65190",
        "latitude": "51.08270"
    },
    {
        "stopPointRef": "de:14612:556",
        "stopPointName": "Hp Stetzsch",
        "locationName": "Dresden",
        "longitude": "13.65166",
        "latitude": "51.08057"
    },
    {
        "stopPointRef": "de:14612:557",
        "stopPointName": "Fehrmannweg",
        "locationName": "Dresden",
        "longitude": "13.64276",
        "latitude": "51.08907"
    },
    {
        "stopPointRef": "de:14612:558",
        "stopPointName": "Gartenstra\u00dfe",
        "locationName": "Dresden",
        "longitude": "13.63784",
        "latitude": "51.08912"
    },
    {
        "stopPointRef": "de:14612:559",
        "stopPointName": "Kolpingstra\u00dfe",
        "locationName": "Dresden",
        "longitude": "13.63544",
        "latitude": "51.09037"
    },
    {
        "stopPointRef": "de:14612:56",
        "stopPointName": "J\u00fcngststra\u00dfe",
        "locationName": "Dresden",
        "longitude": "13.80978",
        "latitude": "51.04924"
    },
    {
        "stopPointRef": "de:14612:560",
        "stopPointName": "Niedergohlis Dorfstra\u00dfe",
        "locationName": "Dresden",
        "longitude": "13.64222",
        "latitude": "51.09435"
    },
    {
        "stopPointRef": "de:14612:561",
        "stopPointName": "Niedergohlis S\u00fcdstr",
        "locationName": "Dresden",
        "longitude": "13.64108",
        "latitude": "51.09276"
    },
    {
        "stopPointRef": "de:14612:562",
        "stopPointName": "Obergohlis",
        "locationName": "Dresden",
        "longitude": "13.64651",
        "latitude": "51.08875"
    },
    {
        "stopPointRef": "de:14612:563",
        "stopPointName": "Schillerstra\u00dfe",
        "locationName": "Dresden",
        "longitude": "13.63466",
        "latitude": "51.08868"
    },
    {
        "stopPointRef": "de:14612:564",
        "stopPointName": "Windm\u00fchlenweg",
        "locationName": "Dresden",
        "longitude": "13.64507",
        "latitude": "51.09241"
    },
    {
        "stopPointRef": "de:14612:565",
        "stopPointName": "An der Jungen Heide",
        "locationName": "Dresden",
        "longitude": "13.71017",
        "latitude": "51.11557"
    },
    {
        "stopPointRef": "de:14612:566",
        "stopPointName": "Dresden Waldmax",
        "locationName": "Dresden",
        "longitude": "13.71301",
        "latitude": "51.11116"
    },
    {
        "stopPointRef": "de:14612:567",
        "stopPointName": "F\u00fcrstenhainer Stra\u00dfe",
        "locationName": "Dresden",
        "longitude": "13.68331",
        "latitude": "51.08577"
    },
    {
        "stopPointRef": "de:14612:568",
        "stopPointName": "Dresden, Hammerweg",
        "locationName": "Dresden",
        "longitude": "13.74259",
        "latitude": "51.08928"
    },
    {
        "stopPointRef": "de:14612:569",
        "stopPointName": "Dresden, Albertstadt West",
        "locationName": "Dresden",
        "longitude": "13.74412",
        "latitude": "51.08626"
    },
    {
        "stopPointRef": "de:14612:57",
        "stopPointName": "Blasewitz Dampfschifffahrt SDS",
        "locationName": "Blasewitz",
        "longitude": "13.81005",
        "latitude": "51.05168"
    },
    {
        "stopPointRef": "de:14612:570",
        "stopPointName": "Kaditzer Stra\u00dfe",
        "locationName": "Dresden",
        "longitude": "13.69532",
        "latitude": "51.07271"
    },
    {
        "stopPointRef": "de:14612:571",
        "stopPointName": "Werftstra\u00dfe",
        "locationName": "Dresden",
        "longitude": "13.68969",
        "latitude": "51.06917"
    },
    {
        "stopPointRef": "de:14612:572",
        "stopPointName": "Overbeckstra\u00dfe",
        "locationName": "Dresden",
        "longitude": "13.69016",
        "latitude": "51.07376"
    },
    {
        "stopPointRef": "de:14612:573",
        "stopPointName": "Gewerbegebiet Kaditz",
        "locationName": "Dresden",
        "longitude": "13.69054",
        "latitude": "51.07794"
    },
    {
        "stopPointRef": "de:14612:574",
        "stopPointName": "Dresden Fl\u00f6\u00dferstra\u00dfe",
        "locationName": "Dresden",
        "longitude": "13.69621",
        "latitude": "51.07793"
    },
    {
        "stopPointRef": "de:14612:575",
        "stopPointName": "Dresden Grimmstra\u00dfe",
        "locationName": "Dresden",
        "longitude": "0.00000",
        "latitude": "0.00000"
    },
    {
        "stopPointRef": "de:14612:576",
        "stopPointName": "Baudissinstra\u00dfe",
        "locationName": "Dresden",
        "longitude": "13.69960",
        "latitude": "51.08797"
    },
    {
        "stopPointRef": "de:14612:577",
        "stopPointName": "Dungerstra\u00dfe",
        "locationName": "Dresden",
        "longitude": "13.69521",
        "latitude": "51.08924"
    },
    {
        "stopPointRef": "de:14612:578",
        "stopPointName": "Dresden Kulturhafen Dresden",
        "locationName": "Dresden",
        "longitude": "13.72199",
        "latitude": "51.08223"
    },
    {
        "stopPointRef": "de:14612:579",
        "stopPointName": "Dresden Emilienstra\u00dfe",
        "locationName": "Dresden",
        "longitude": "13.69116",
        "latitude": "51.09315"
    },
    {
        "stopPointRef": "de:14612:580",
        "stopPointName": "Altkaditz",
        "locationName": "Dresden",
        "longitude": "13.67229",
        "latitude": "51.08405"
    },
    {
        "stopPointRef": "de:14612:582",
        "stopPointName": "Kaditz Am Vorwerksfeld",
        "locationName": "Dresden",
        "longitude": "13.66828",
        "latitude": "51.09297"
    },
    {
        "stopPointRef": "de:14612:583",
        "stopPointName": "Spitzhausstra\u00dfe",
        "locationName": "Dresden",
        "longitude": "13.67353",
        "latitude": "51.09149"
    },
    {
        "stopPointRef": "de:14612:584",
        "stopPointName": "Seewiesenweg",
        "locationName": "Dresden",
        "longitude": "13.67954",
        "latitude": "51.08797"
    },
    {
        "stopPointRef": "de:14612:585",
        "stopPointName": "Riegelplatz",
        "locationName": "Dresden",
        "longitude": "13.68670",
        "latitude": "51.08361"
    },
    {
        "stopPointRef": "de:14612:586",
        "stopPointName": "W\u00e4chterstra\u00dfe",
        "locationName": "Dresden",
        "longitude": "13.70057",
        "latitude": "51.08229"
    },
    {
        "stopPointRef": "de:14612:587",
        "stopPointName": "Bunsenstra\u00dfe",
        "locationName": "Dresden",
        "longitude": "13.70683",
        "latitude": "51.08230"
    },
    {
        "stopPointRef": "de:14612:588",
        "stopPointName": "ElbePark",
        "locationName": "Dresden",
        "longitude": "13.69536",
        "latitude": "51.08198"
    },
    {
        "stopPointRef": "de:14612:589",
        "stopPointName": "Wurzener Stra\u00dfe",
        "locationName": "Dresden",
        "longitude": "13.71998",
        "latitude": "51.08114"
    },
    {
        "stopPointRef": "de:14612:590",
        "stopPointName": "Markusfriedhof",
        "locationName": "Dresden",
        "longitude": "13.72210",
        "latitude": "51.08685"
    },
    {
        "stopPointRef": "de:14612:591",
        "stopPointName": "Boxdorfer Stra\u00dfe",
        "locationName": "Dresden",
        "longitude": "13.71869",
        "latitude": "51.08771"
    },
    {
        "stopPointRef": "de:14612:593",
        "stopPointName": "S-Bahnhof Pieschen",
        "locationName": "Dresden",
        "longitude": "13.72605",
        "latitude": "51.08151"
    },
    {
        "stopPointRef": "de:14612:594",
        "stopPointName": "Pestalozziplatz",
        "locationName": "Dresden",
        "longitude": "13.73242",
        "latitude": "51.07879"
    },
    {
        "stopPointRef": "de:14612:595",
        "stopPointName": "Maxim-Gorki-Stra\u00dfe",
        "locationName": "Dresden",
        "longitude": "13.73131",
        "latitude": "51.08883"
    },
    {
        "stopPointRef": "de:14612:596",
        "stopPointName": "Sankt-Pauli-Friedhof",
        "locationName": "Dresden",
        "longitude": "13.73753",
        "latitude": "51.08727"
    },
    {
        "stopPointRef": "de:14612:597",
        "stopPointName": "Oberauer Stra\u00dfe",
        "locationName": "Dresden",
        "longitude": "13.74280",
        "latitude": "51.08453"
    },
    {
        "stopPointRef": "de:14612:598",
        "stopPointName": "B\u00e4rwalder Stra\u00dfe",
        "locationName": "Dresden",
        "longitude": "13.74541",
        "latitude": "51.08148"
    },
    {
        "stopPointRef": "de:14612:599",
        "stopPointName": "Schanzenstra\u00dfe",
        "locationName": "Dresden",
        "longitude": "13.75038",
        "latitude": "51.07745"
    },
    {
        "stopPointRef": "de:14612:6",
        "stopPointName": "Deutsches Hygiene-Museum",
        "locationName": "Dresden",
        "longitude": "13.75008",
        "latitude": "51.04763"
    },
    {
        "stopPointRef": "de:14612:600",
        "stopPointName": "Rudolf-Leonhard-Stra\u00dfe",
        "locationName": "Dresden",
        "longitude": "13.75195",
        "latitude": "51.07740"
    },
    {
        "stopPointRef": "de:14612:601",
        "stopPointName": "Buchenstra\u00dfe",
        "locationName": "Dresden",
        "longitude": "13.74723",
        "latitude": "51.07876"
    },
    {
        "stopPointRef": "de:14612:603",
        "stopPointName": "Justizvollzugsanstalt",
        "locationName": "Dresden",
        "longitude": "13.74944",
        "latitude": "51.08915"
    },
    {
        "stopPointRef": "de:14612:604",
        "stopPointName": "Marienallee",
        "locationName": "Dresden",
        "longitude": "13.76554",
        "latitude": "51.07325"
    },
    {
        "stopPointRef": "de:14612:605",
        "stopPointName": "Landesdirektion Sachsen",
        "locationName": "Dresden",
        "longitude": "13.77024",
        "latitude": "51.07173"
    },
    {
        "stopPointRef": "de:14612:606",
        "stopPointName": "Waldschl\u00f6\u00dfchenstra\u00dfe",
        "locationName": "Dresden",
        "longitude": "13.77539",
        "latitude": "51.06984"
    },
    {
        "stopPointRef": "de:14612:608",
        "stopPointName": "Arno-Holz-Allee",
        "locationName": "Dresden",
        "longitude": "13.76575",
        "latitude": "51.07109"
    },
    {
        "stopPointRef": "de:14612:609",
        "stopPointName": "Fabricestra\u00dfe",
        "locationName": "Dresden",
        "longitude": "13.74315",
        "latitude": "51.09010"
    },
    {
        "stopPointRef": "de:14612:61",
        "stopPointName": "Krankenhaus Sankt Joseph-Stift",
        "locationName": "Dresden",
        "longitude": "13.76298",
        "latitude": "51.04676"
    },
    {
        "stopPointRef": "de:14612:610",
        "stopPointName": "Klotzsche Infineon",
        "locationName": "Dresden",
        "longitude": "13.77405",
        "latitude": "51.10708"
    },
    {
        "stopPointRef": "de:14612:611",
        "stopPointName": "Rathaus Klotzsche",
        "locationName": "Dresden",
        "longitude": "13.77480",
        "latitude": "51.11109"
    },
    {
        "stopPointRef": "de:14612:612",
        "stopPointName": "Dresden Greifswalder Stra\u00dfe",
        "locationName": "Dresden",
        "longitude": "13.77153",
        "latitude": "51.11045"
    },
    {
        "stopPointRef": "de:14612:613",
        "stopPointName": "Flughafen Terminal 1",
        "locationName": "Dresden",
        "longitude": "13.76171",
        "latitude": "51.12310"
    },
    {
        "stopPointRef": "de:14612:614",
        "stopPointName": "Gr\u00fcner Weg",
        "locationName": "Dresden",
        "longitude": "13.77328",
        "latitude": "51.11371"
    },
    {
        "stopPointRef": "de:14612:615",
        "stopPointName": "D\u00f6rnichtweg",
        "locationName": "Dresden",
        "longitude": "13.77005",
        "latitude": "51.11632"
    },
    {
        "stopPointRef": "de:14612:616",
        "stopPointName": "Flughafenstra\u00dfe",
        "locationName": "Dresden",
        "longitude": "13.76347",
        "latitude": "51.12067"
    },
    {
        "stopPointRef": "de:14612:617",
        "stopPointName": "Flughafen",
        "locationName": "Dresden",
        "longitude": "13.76597",
        "latitude": "51.12454"
    },
    {
        "stopPointRef": "de:14612:618",
        "stopPointName": "Flughafen West",
        "locationName": "Dresden",
        "longitude": "13.76401",
        "latitude": "51.12231"
    },
    {
        "stopPointRef": "de:14612:619",
        "stopPointName": "Flugzeugwerke",
        "locationName": "Dresden",
        "longitude": "13.77238",
        "latitude": "51.12698"
    },
    {
        "stopPointRef": "de:14612:62",
        "stopPointName": "Fetscherplatz",
        "locationName": "Dresden",
        "longitude": "13.77085",
        "latitude": "51.04635"
    },
    {
        "stopPointRef": "de:14612:620",
        "stopPointName": "Dresden Flughafenverwaltung",
        "locationName": "Dresden",
        "longitude": "13.76039",
        "latitude": "51.12220"
    },
    {
        "stopPointRef": "de:14612:621",
        "stopPointName": "Krankenhaus Neustadt",
        "locationName": "Dresden",
        "longitude": "13.70909",
        "latitude": "51.08968"
    },
    {
        "stopPointRef": "de:14612:622",
        "stopPointName": "S-Bahnhof Trachau",
        "locationName": "Dresden",
        "longitude": "13.70385",
        "latitude": "51.08994"
    },
    {
        "stopPointRef": "de:14612:623",
        "stopPointName": "Kopernikusstra\u00dfe",
        "locationName": "Dresden",
        "longitude": "13.71147",
        "latitude": "51.09121"
    },
    {
        "stopPointRef": "de:14612:624",
        "stopPointName": "Aachener Stra\u00dfe",
        "locationName": "Dresden",
        "longitude": "13.71194",
        "latitude": "51.09487"
    },
    {
        "stopPointRef": "de:14612:625",
        "stopPointName": "Stephanstra\u00dfe",
        "locationName": "Dresden",
        "longitude": "13.71615",
        "latitude": "51.09376"
    },
    {
        "stopPointRef": "de:14612:626",
        "stopPointName": "Wilder-Mann-Stra\u00dfe",
        "locationName": "Dresden",
        "longitude": "13.71522",
        "latitude": "51.08802"
    },
    {
        "stopPointRef": "de:14612:627",
        "stopPointName": "Platanenstra\u00dfe",
        "locationName": "Dresden",
        "longitude": "13.71881",
        "latitude": "51.09444"
    },
    {
        "stopPointRef": "de:14612:628",
        "stopPointName": "Neul\u00e4nder Stra\u00dfe",
        "locationName": "Dresden",
        "longitude": "13.71570",
        "latitude": "51.09907"
    },
    {
        "stopPointRef": "de:14612:629",
        "stopPointName": "Heidefriedhof",
        "locationName": "Dresden",
        "longitude": "13.71040",
        "latitude": "51.10467"
    },
    {
        "stopPointRef": "de:14612:63",
        "stopPointName": "Mosenstra\u00dfe",
        "locationName": "Dresden",
        "longitude": "13.77778",
        "latitude": "51.04483"
    },
    {
        "stopPointRef": "de:14612:630",
        "stopPointName": "Dresden Hendrichstra\u00dfe",
        "locationName": "Dresden",
        "longitude": "13.76506",
        "latitude": "51.11204"
    },
    {
        "stopPointRef": "de:14612:631",
        "stopPointName": "Markt Hellerau",
        "locationName": "Dresden",
        "longitude": "13.76202",
        "latitude": "51.10863"
    },
    {
        "stopPointRef": "de:14612:632",
        "stopPointName": "Dresden Hellerau Werkst\u00e4tten",
        "locationName": "Dresden",
        "longitude": "13.75696",
        "latitude": "51.10774"
    },
    {
        "stopPointRef": "de:14612:633",
        "stopPointName": "Dresden Manfred-v-Ardenne-Ring",
        "locationName": "Dresden",
        "longitude": "13.76776",
        "latitude": "51.09494"
    },
    {
        "stopPointRef": "de:14612:634",
        "stopPointName": "L\u00f6\u00dfnitzweg",
        "locationName": "Dresden",
        "longitude": "13.71215",
        "latitude": "51.11729"
    },
    {
        "stopPointRef": "de:14612:635",
        "stopPointName": "Robert-Bosch-Ring",
        "locationName": "Dresden",
        "longitude": "13.73990",
        "latitude": "51.12912"
    },
    {
        "stopPointRef": "de:14612:636",
        "stopPointName": "R\u00e4hnitzer Allee",
        "locationName": "Dresden",
        "longitude": "13.74310",
        "latitude": "51.12480"
    },
    {
        "stopPointRef": "de:14612:637",
        "stopPointName": "Hellerhofstra\u00dfe",
        "locationName": "Dresden",
        "longitude": "13.73144",
        "latitude": "51.09806"
    },
    {
        "stopPointRef": "de:14612:638",
        "stopPointName": "Hellerberge",
        "locationName": "Dresden",
        "longitude": "13.73578",
        "latitude": "51.09992"
    },
    {
        "stopPointRef": "de:14612:639",
        "stopPointName": "Wilschdorfer Landstra\u00dfe",
        "locationName": "Dresden",
        "longitude": "13.73184",
        "latitude": "51.12633"
    },
    {
        "stopPointRef": "de:14612:64",
        "stopPointName": "Bergmannstra\u00dfe",
        "locationName": "Dresden",
        "longitude": "13.78835",
        "latitude": "51.04330"
    },
    {
        "stopPointRef": "de:14612:640",
        "stopPointName": "Sa\u00dfnitzer Stra\u00dfe",
        "locationName": "Dresden",
        "longitude": "13.73106",
        "latitude": "51.11816"
    },
    {
        "stopPointRef": "de:14612:641",
        "stopPointName": "Reineckeweg",
        "locationName": "Dresden",
        "longitude": "13.72118",
        "latitude": "51.12104"
    },
    {
        "stopPointRef": "de:14612:642",
        "stopPointName": "Keulenbergstra\u00dfe",
        "locationName": "Dresden",
        "longitude": "13.72467",
        "latitude": "51.11820"
    },
    {
        "stopPointRef": "de:14612:643",
        "stopPointName": "Waldteichstra\u00dfe",
        "locationName": "Dresden",
        "longitude": "13.73000",
        "latitude": "51.11719"
    },
    {
        "stopPointRef": "de:14612:644",
        "stopPointName": "Elsterweg",
        "locationName": "Dresden",
        "longitude": "13.72796",
        "latitude": "51.11401"
    },
    {
        "stopPointRef": "de:14612:645",
        "stopPointName": "Am Olter",
        "locationName": "Dresden",
        "longitude": "13.73252",
        "latitude": "51.10965"
    },
    {
        "stopPointRef": "de:14612:646",
        "stopPointName": "Lauterbacher Stra\u00dfe",
        "locationName": "Dresden",
        "longitude": "13.73722",
        "latitude": "51.09228"
    },
    {
        "stopPointRef": "de:14612:647",
        "stopPointName": "Eschebachstra\u00dfe",
        "locationName": "Dresden",
        "longitude": "13.73335",
        "latitude": "51.08164"
    },
    {
        "stopPointRef": "de:14612:648",
        "stopPointName": "Beckerstra\u00dfe",
        "locationName": "Dresden",
        "longitude": "13.73564",
        "latitude": "51.11800"
    },
    {
        "stopPointRef": "de:14612:649",
        "stopPointName": "Altwilschdorf",
        "locationName": "Dresden",
        "longitude": "13.72364",
        "latitude": "51.12350"
    },
    {
        "stopPointRef": "de:14612:65",
        "stopPointName": "Pohlandplatz",
        "locationName": "Dresden",
        "longitude": "13.79532",
        "latitude": "51.04287"
    },
    {
        "stopPointRef": "de:14612:650",
        "stopPointName": "Wilschdorf Industriegebiet",
        "locationName": "Dresden",
        "longitude": "13.72218",
        "latitude": "51.12748"
    },
    {
        "stopPointRef": "de:14612:651",
        "stopPointName": "Am Hellerhof",
        "locationName": "Dresden",
        "longitude": "13.73470",
        "latitude": "51.09410"
    },
    {
        "stopPointRef": "de:14612:652",
        "stopPointName": "Am Festspielhaus",
        "locationName": "Dresden",
        "longitude": "13.75357",
        "latitude": "51.11619"
    },
    {
        "stopPointRef": "de:14612:653",
        "stopPointName": "Am Steinacker",
        "locationName": "Dresden",
        "longitude": "13.76134",
        "latitude": "51.11790"
    },
    {
        "stopPointRef": "de:14612:654",
        "stopPointName": "Ahlbecker Stra\u00dfe",
        "locationName": "Dresden",
        "longitude": "13.76662",
        "latitude": "51.11860"
    },
    {
        "stopPointRef": "de:14612:655",
        "stopPointName": "An der Bartlake",
        "locationName": "Dresden",
        "longitude": "13.73715",
        "latitude": "51.12575"
    },
    {
        "stopPointRef": "de:14612:656",
        "stopPointName": "Stralsunder Stra\u00dfe",
        "locationName": "Dresden",
        "longitude": "13.78037",
        "latitude": "51.11506"
    },
    {
        "stopPointRef": "de:14612:658",
        "stopPointName": "Bahnhof Klotzsche",
        "locationName": "Dresden",
        "longitude": "13.78904",
        "latitude": "51.11483"
    },
    {
        "stopPointRef": "de:14612:659",
        "stopPointName": "Dresden Altklotzsche",
        "locationName": "Dresden",
        "longitude": "13.76669",
        "latitude": "51.11238"
    },
    {
        "stopPointRef": "de:14612:66",
        "stopPointName": "Gottleubaer Stra\u00dfe",
        "locationName": "Dresden",
        "longitude": "13.80093",
        "latitude": "51.04117"
    },
    {
        "stopPointRef": "de:14612:660",
        "stopPointName": "Dresden Bauernweg",
        "locationName": "Dresden",
        "longitude": "13.73688",
        "latitude": "51.11923"
    },
    {
        "stopPointRef": "de:14612:661",
        "stopPointName": "Grenzstra\u00dfe (Bus)",
        "locationName": "Dresden",
        "longitude": "13.78105",
        "latitude": "51.12737"
    },
    {
        "stopPointRef": "de:14612:662",
        "stopPointName": "S-Bahnhof Grenzstra\u00dfe",
        "locationName": "Dresden",
        "longitude": "13.77797",
        "latitude": "51.12824"
    },
    {
        "stopPointRef": "de:14612:663",
        "stopPointName": "Klotzsche Maria-Reiche-Stra\u00dfe",
        "locationName": "Dresden",
        "longitude": "13.78848",
        "latitude": "51.12624"
    },
    {
        "stopPointRef": "de:14612:664",
        "stopPointName": "Putbuser Weg",
        "locationName": "Dresden",
        "longitude": "13.77964",
        "latitude": "51.12436"
    },
    {
        "stopPointRef": "de:14612:665",
        "stopPointName": "Sagarder Weg",
        "locationName": "Dresden",
        "longitude": "13.78273",
        "latitude": "51.12363"
    },
    {
        "stopPointRef": "de:14612:666",
        "stopPointName": "Fontane-Center",
        "locationName": "Dresden",
        "longitude": "13.78506",
        "latitude": "51.12277"
    },
    {
        "stopPointRef": "de:14612:667",
        "stopPointName": "St.-Marien-Krankenhaus",
        "locationName": "Dresden",
        "longitude": "13.78450",
        "latitude": "51.12113"
    },
    {
        "stopPointRef": "de:14612:67",
        "stopPointName": "Altenberger Stra\u00dfe",
        "locationName": "Dresden",
        "longitude": "13.80585",
        "latitude": "51.03948"
    },
    {
        "stopPointRef": "de:14612:670",
        "stopPointName": "Karlshagener Weg",
        "locationName": "Dresden",
        "longitude": "13.77410",
        "latitude": "51.11798"
    },
    {
        "stopPointRef": "de:14612:671",
        "stopPointName": "Zinnowitzer Stra\u00dfe",
        "locationName": "Dresden",
        "longitude": "13.77840",
        "latitude": "51.11665"
    },
    {
        "stopPointRef": "de:14612:672",
        "stopPointName": "Hugo-Junkers-Ring",
        "locationName": "Dresden",
        "longitude": "13.79130",
        "latitude": "51.12973"
    },
    {
        "stopPointRef": "de:14612:673",
        "stopPointName": "Zur Steinh\u00f6he",
        "locationName": "Dresden",
        "longitude": "13.77944",
        "latitude": "51.13210"
    },
    {
        "stopPointRef": "de:14612:674",
        "stopPointName": "Dresden Tower",
        "locationName": "Dresden",
        "longitude": "13.77572",
        "latitude": "51.13244"
    },
    {
        "stopPointRef": "de:14612:675",
        "stopPointName": "Zum Windkanal",
        "locationName": "Dresden",
        "longitude": "13.77738",
        "latitude": "51.13446"
    },
    {
        "stopPointRef": "de:14612:676",
        "stopPointName": "Industriegebiet Nord",
        "locationName": "Dresden",
        "longitude": "13.78250",
        "latitude": "51.13878"
    },
    {
        "stopPointRef": "de:14612:677",
        "stopPointName": "Ikarusweg",
        "locationName": "Dresden",
        "longitude": "13.78637",
        "latitude": "51.13121"
    },
    {
        "stopPointRef": "de:14612:678",
        "stopPointName": "Schwimmhalle Klotzsche",
        "locationName": "Dresden",
        "longitude": "13.78054",
        "latitude": "51.13542"
    },
    {
        "stopPointRef": "de:14612:679",
        "stopPointName": "Dresden Wilschdorf Gasthof",
        "locationName": "Dresden",
        "longitude": "13.72015",
        "latitude": "51.12153"
    },
    {
        "stopPointRef": "de:14612:68",
        "stopPointName": "Striesen Ludwig-Hartmann-Stra\u00dfe",
        "locationName": "Dresden",
        "longitude": "13.80868",
        "latitude": "51.03803"
    },
    {
        "stopPointRef": "de:14612:681",
        "stopPointName": "Zum Kraftwerk",
        "locationName": "Dresden",
        "longitude": "13.77808",
        "latitude": "51.13199"
    },
    {
        "stopPointRef": "de:14612:682",
        "stopPointName": "Dresden Bienertstra\u00dfe",
        "locationName": "Dresden",
        "longitude": "13.70387",
        "latitude": "51.03172"
    },
    {
        "stopPointRef": "de:14612:683",
        "stopPointName": "Dresden Altfranken Schleife",
        "locationName": "Dresden",
        "longitude": "13.64667",
        "latitude": "51.03750"
    },
    {
        "stopPointRef": "de:14612:684",
        "stopPointName": "W\u00f6lfnitzer Ring",
        "locationName": "Dresden",
        "longitude": "13.67353",
        "latitude": "51.04047"
    },
    {
        "stopPointRef": "de:14612:685",
        "stopPointName": "Kapellenweg",
        "locationName": "Dresden",
        "longitude": "13.66645",
        "latitude": "51.04001"
    },
    {
        "stopPointRef": "de:14612:686",
        "stopPointName": "Hirtenstra\u00dfe",
        "locationName": "Dresden",
        "longitude": "13.65969",
        "latitude": "51.04002"
    },
    {
        "stopPointRef": "de:14612:687",
        "stopPointName": "Am Altfrankener Park",
        "locationName": "Dresden",
        "longitude": "13.65170",
        "latitude": "51.03928"
    },
    {
        "stopPointRef": "de:14612:688",
        "stopPointName": "Am Rittergut",
        "locationName": "Altfranken",
        "longitude": "13.64587",
        "latitude": "51.03378"
    },